[
  {
    "nom": "Vieux Kouba",
    "nom_ar": "القبة القديمة ",
    "commune": "Kouba",
    "commune_ar": "القبة",
    "lat": "36.72974",
    "lon": "3.075135"
  },
  {
    "nom": "CFPA Khoudja Rabah",
    "nom_ar": "مركز التكوين المهني علي خوجة",
    "commune": "Hraoua",
    "commune_ar": "الهراوة",
    "lat": "36.767323",
    "lon": "3.322931"
  },
  {
    "nom": "Caroubier",
    "nom_ar": "خروبة ",
    "commune": "El Magharia",
    "commune_ar": "المقرية",
    "lat": "36.734609",
    "lon": "3.11991"
  },
  {
    "nom": "Gare de Train El Harrach",
    "nom_ar": "محطة القطار الحراش ",
    "commune": "El Harrach",
    "commune_ar": "الحراش",
    "lat": "36.722163",
    "lon": "3.132947"
  },
  {
    "nom": "Commissariat de Police El Hamiz",
    "nom_ar": "دائرة الأمن الحميز ",
    "commune": "Dar El Beida",
    "commune_ar": "الدار البيضاء",
    "lat": "36.72974",
    "lon": "3.22925"
  },
  {
    "nom": "El Karia",
    "nom_ar": "القرية ",
    "commune": "Hraoua",
    "commune_ar": "الهراوة",
    "lat": "36.776114",
    "lon": "3.288537"
  },
  {
    "nom": "Centre International des Conferences",
    "nom_ar": "المركز الدولي للمحاضرات ",
    "commune": "Cheraga",
    "commune_ar": "شراقة",
    "lat": "36.767323",
    "lon": "2.895863"
  },
  {
    "nom": "APC Ouled Fayet",
    "nom_ar": "بلدية أولاد فايت ",
    "commune": "Ouled Fayet",
    "commune_ar": "أولاد فايت",
    "lat": "36.734609",
    "lon": "2.950104"
  },
  {
    "nom": "Café Chergui",
    "nom_ar": "قهوة شرقي ",
    "commune": "Bordj El Kiffan",
    "commune_ar": "برج الكيفان",
    "lat": "36.776114",
    "lon": "3.252011"
  },
  {
    "nom": "La Poste Bachdjarah",
    "nom_ar": "مركز البريد باش جراح",
    "commune": "Bourouba",
    "commune_ar": "بوروبة",
    "lat": "36.722163",
    "lon": "3.119876"
  },
  {
    "nom": "Ain Benian Centre",
    "nom_ar": "عين البنيان وسط ",
    "commune": "Ain Benian",
    "commune_ar": "عين بنيان",
    "lat": "36.800319",
    "lon": "2.913801"
  },
  {
    "nom": "CEM Ahmed Ben Badis",
    "nom_ar": "متوسطة عبد الحميد بن باديس ",
    "commune": "Ain Benian",
    "commune_ar": "عين بنيان",
    "lat": "36.800319",
    "lon": "2.917633"
  },
  {
    "nom": "Ahmed Bougara",
    "nom_ar": "أحمد بوقرة",
    "commune": "El Biar",
    "commune_ar": "الأبيار",
    "lat": "36.766552",
    "lon": "3.036058"
  },
  {
    "nom": "Ahmed Bougara 1",
    "nom_ar": "أحمد بوقرة 1",
    "commune": "El Biar",
    "commune_ar": "الأبيار",
    "lat": "36.766932",
    "lon": "3.035252"
  },
  {
    "nom": "Ahmed Bougara 2",
    "nom_ar": "أحمد بوقرة 2",
    "commune": "El Biar",
    "commune_ar": "الأبيار",
    "lat": "36.768121",
    "lon": "3.032451"
  },
  {
    "nom": "Carnot",
    "nom_ar": "كارنو",
    "commune": "El Biar",
    "commune_ar": "الأبيار",
    "lat": "36.772267",
    "lon": "3.02446"
  },
  {
    "nom": "Carnot",
    "nom_ar": "كارنو",
    "commune": "El Biar",
    "commune_ar": "الأبيار",
    "lat": "36.772911",
    "lon": "3.021918"
  },
  {
    "nom": "Carnot",
    "nom_ar": "كارنو",
    "commune": "El Biar",
    "commune_ar": "الأبيار",
    "lat": "36.772948",
    "lon": "3.024451"
  },
  {
    "nom": "Chateau Neuf",
    "nom_ar": "شاطوناف",
    "commune": "El Biar",
    "commune_ar": "الأبيار",
    "lat": "36.768731",
    "lon": "3.021607"
  },
  {
    "nom": "Chateau Neuf",
    "nom_ar": "شاطوناف",
    "commune": "El Biar",
    "commune_ar": "الأبيار",
    "lat": "36.768836",
    "lon": "3.021516"
  },
  {
    "nom": "Cheval Blanc",
    "nom_ar": "شوفال بلون",
    "commune": "El Biar",
    "commune_ar": "الأبيار",
    "lat": "36.769255",
    "lon": "3.02672"
  },
  {
    "nom": "Chevalley",
    "nom_ar": "شوفالي",
    "commune": "El Biar",
    "commune_ar": "الأبيار",
    "lat": "36.768932",
    "lon": "3.009917"
  },
  {
    "nom": "Chevalley",
    "nom_ar": "شوفالي",
    "commune": "El Biar",
    "commune_ar": "الأبيار",
    "lat": "36.769045",
    "lon": "3.009829"
  },
  {
    "nom": "Fac des langues",
    "nom_ar": "جامعة اللغات",
    "commune": "El Biar",
    "commune_ar": "الأبيار",
    "lat": "36.764369",
    "lon": "3.014819"
  },
  {
    "nom": "Fort Empreur",
    "nom_ar": "فور أمبرور ",
    "commune": "El Biar",
    "commune_ar": "الأبيار",
    "lat": "36.773349",
    "lon": "3.043929"
  },
  {
    "nom": "Fort Empreur",
    "nom_ar": "فور أمبرور ",
    "commune": "El Biar",
    "commune_ar": "الأبيار",
    "lat": "36.77403",
    "lon": "3.044794"
  },
  {
    "nom": "Frais Vallon",
    "nom_ar": "فري فالون",
    "commune": "El Biar",
    "commune_ar": "الأبيار",
    "lat": "36.778479",
    "lon": "3.038619"
  },
  {
    "nom": "Les Pins",
    "nom_ar": "الصنوبر",
    "commune": "El Biar",
    "commune_ar": "الأبيار",
    "lat": "36.766952",
    "lon": "3.030501"
  },
  {
    "nom": "Les Sources",
    "nom_ar": "الينابيع",
    "commune": "El Biar",
    "commune_ar": "الأبيار",
    "lat": "36.77447",
    "lon": "3.035695"
  },
  {
    "nom": "Les Sources",
    "nom_ar": "الينابيع",
    "commune": "El Biar",
    "commune_ar": "الأبيار",
    "lat": "36.774992",
    "lon": "3.036"
  },
  {
    "nom": "Saint Raphael",
    "nom_ar": "سان رفايال",
    "commune": "El Biar",
    "commune_ar": "الأبيار",
    "lat": "36.770141",
    "lon": "3.036655"
  },
  {
    "nom": "Saint Raphael",
    "nom_ar": "سان رفايال",
    "commune": "El Biar",
    "commune_ar": "الأبيار",
    "lat": "36.770295",
    "lon": "3.03718"
  },
  {
    "nom": "Stade El Biar",
    "nom_ar": "ملعب الأبيار  ",
    "commune": "El Biar",
    "commune_ar": "الأبيار",
    "lat": "36.764949",
    "lon": "3.023942"
  },
  {
    "nom": "Station de Chateau Neuf",
    "nom_ar": "محطة الحافلات شاطوناف",
    "commune": "El Biar",
    "commune_ar": "الأبيار",
    "lat": "36.767826",
    "lon": "3.018776"
  },
  {
    "nom": "Station de Chateau Neuf",
    "nom_ar": "محطة الحافلات شاطوناف",
    "commune": "El Biar",
    "commune_ar": "الأبيار",
    "lat": "36.767866",
    "lon": "3.018821"
  },
  {
    "nom": "Aerohabitat",
    "nom_ar": "أيرو أبيطا",
    "commune": "Alger Centre",
    "commune_ar": "الجزائر الوسطى",
    "lat": "36.765664",
    "lon": "3.045458"
  },
  {
    "nom": "Beaux Arts",
    "nom_ar": "الفنون الجميلة ",
    "commune": "Alger Centre",
    "commune_ar": "الجزائر الوسطى",
    "lat": "36.761932",
    "lon": "3.045294"
  },
  {
    "nom": "Beaux Arts",
    "nom_ar": "الفنون الجميلة ",
    "commune": "Alger Centre",
    "commune_ar": "الجزائر الوسطى",
    "lat": "36.762001",
    "lon": "3.045146"
  },
  {
    "nom": "Bibliotheque Nationale",
    "nom_ar": "المكتبة الوطنية ",
    "commune": "Alger Centre",
    "commune_ar": "الجزائر الوسطى",
    "lat": "36.774811",
    "lon": "3.053816"
  },
  {
    "nom": "Bibliotheque Nationale",
    "nom_ar": "المكتبة الوطنية ",
    "commune": "Alger Centre",
    "commune_ar": "الجزائر الوسطى",
    "lat": "36.774943",
    "lon": "3.053857"
  },
  {
    "nom": "Boulevard KRIM Belkacem",
    "nom_ar": "شارع كريم بلقاسم ",
    "commune": "Alger Centre",
    "commune_ar": "الجزائر الوسطى",
    "lat": "36.772083",
    "lon": "3.05156"
  },
  {
    "nom": "Boulevard KRIM Belkacem",
    "nom_ar": "شارع كريم بلقاسم ",
    "commune": "Alger Centre",
    "commune_ar": "الجزائر الوسطى",
    "lat": "36.772148",
    "lon": "3.051408"
  },
  {
    "nom": "CNR Bougara",
    "nom_ar": "الصندوق الوطني للتقاعد (أحمد بوقرة)",
    "commune": "Alger Centre",
    "commune_ar": "الجزائر الوسطى",
    "lat": "36.75839",
    "lon": "3.042806"
  },
  {
    "nom": "CNR Bougara",
    "nom_ar": "الصندوق الوطني للتقاعد (أحمد بوقرة)",
    "commune": "Alger Centre",
    "commune_ar": "الجزائر الوسطى",
    "lat": "36.758606",
    "lon": "3.042513"
  },
  {
    "nom": "Escaliers Mecaniques",
    "nom_ar": "المدرج الميكانيكي ",
    "commune": "Alger Centre",
    "commune_ar": "الجزائر الوسطى",
    "lat": "36.766069",
    "lon": "3.048209"
  },
  {
    "nom": "Gare de Train d Alger",
    "nom_ar": "محطة القطار الجزائر ",
    "commune": "Alger Centre",
    "commune_ar": "الجزائر الوسطى",
    "lat": "36.780456",
    "lon": "3.062631"
  },
  {
    "nom": "Gare de Train d Alger",
    "nom_ar": "محطة القطار الجزائر ",
    "commune": "Alger Centre",
    "commune_ar": "الجزائر الوسطى",
    "lat": "36.780484",
    "lon": "3.062728"
  },
  {
    "nom": "La Grande Poste",
    "nom_ar": "البريد المركزي ",
    "commune": "Alger Centre",
    "commune_ar": "الجزائر الوسطى",
    "lat": "36.771531",
    "lon": "3.057556"
  },
  {
    "nom": "La Grande Poste",
    "nom_ar": "البريد المركزي ",
    "commune": "Alger Centre",
    "commune_ar": "الجزائر الوسطى",
    "lat": "36.772169",
    "lon": "3.058267"
  },
  {
    "nom": "Jardin de Tunis",
    "nom_ar": "حديقة تونس ",
    "commune": "Alger Centre",
    "commune_ar": "الجزائر الوسطى",
    "lat": "36.765232",
    "lon": "3.039438"
  },
  {
    "nom": "Jardin du Tunis",
    "nom_ar": "حديقة تونس ",
    "commune": "Alger Centre",
    "commune_ar": "الجزائر الوسطى",
    "lat": "36.765456",
    "lon": "3.039898"
  },
  {
    "nom": "La Grande Poste (Parc Sofia)",
    "nom_ar": "البريد المركزي (حديقة صوفيا)",
    "commune": "Alger Centre",
    "commune_ar": "الجزائر الوسطى",
    "lat": "36.772614",
    "lon": "3.060625"
  },
  {
    "nom": "La Grande Poste (Parc Sofia)",
    "nom_ar": "البريد المركزي (حديقة صوفيا)",
    "commune": "Alger Centre",
    "commune_ar": "الجزائر الوسطى",
    "lat": "36.773667",
    "lon": "3.059787"
  },
  {
    "nom": "La Rochelle",
    "nom_ar": "لاروشيل ",
    "commune": "Alger Centre",
    "commune_ar": "الجزائر الوسطى",
    "lat": "36.760796",
    "lon": "3.042547"
  },
  {
    "nom": "La Rochelle",
    "nom_ar": "لاروشيل ",
    "commune": "Alger Centre",
    "commune_ar": "الجزائر الوسطى",
    "lat": "36.761016",
    "lon": "3.042563"
  },
  {
    "nom": "Les Ateliers",
    "nom_ar": "الورشات ",
    "commune": "Alger Centre",
    "commune_ar": "الجزائر الوسطى",
    "lat": "36.75646",
    "lon": "3.066248"
  },
  {
    "nom": "Les Tagarins",
    "nom_ar": "طاقارا",
    "commune": "Alger Centre",
    "commune_ar": "الجزائر الوسطى",
    "lat": "36.77613",
    "lon": "3.046972"
  },
  {
    "nom": "Les Tagarins",
    "nom_ar": "طاقارا",
    "commune": "Alger Centre",
    "commune_ar": "الجزائر الوسطى",
    "lat": "36.776586",
    "lon": "3.04857"
  },
  {
    "nom": "Lycée Zineb Oum El Massakine",
    "nom_ar": "ثانوية زينب أم المساكين ",
    "commune": "Alger Centre",
    "commune_ar": "الجزائر الوسطى",
    "lat": "36.769488",
    "lon": "3.050414"
  },
  {
    "nom": "Lycée Zineb Oum El Massakine",
    "nom_ar": "ثانوية زينب أم المساكين ",
    "commune": "Alger Centre",
    "commune_ar": "الجزائر الوسطى",
    "lat": "36.76952",
    "lon": "3.050518"
  },
  {
    "nom": "Mauretania",
    "nom_ar": "موريطانيا",
    "commune": "Alger Centre",
    "commune_ar": "الجزائر الوسطى",
    "lat": "36.76792",
    "lon": "3.056233"
  },
  {
    "nom": "Moulin",
    "nom_ar": "الطاحونة",
    "commune": "Alger Centre",
    "commune_ar": "الجزائر الوسطى",
    "lat": "36.765085",
    "lon": "3.055929"
  },
  {
    "nom": "Mauretania",
    "nom_ar": "موريطانيا",
    "commune": "Alger Centre",
    "commune_ar": "الجزائر الوسطى",
    "lat": "36.767989",
    "lon": "3.056196"
  },
  {
    "nom": "Moulin",
    "nom_ar": "الطاحونة",
    "commune": "Alger Centre",
    "commune_ar": "الجزائر الوسطى",
    "lat": "36.765107",
    "lon": "3.055978"
  },
  {
    "nom": "Parc de BEYROUTH",
    "nom_ar": "حديقة بيروت ",
    "commune": "Alger Centre",
    "commune_ar": "الجزائر الوسطى",
    "lat": "36.767308",
    "lon": "3.048136"
  },
  {
    "nom": "Parc de BEYROUTH",
    "nom_ar": "حديقة بيروت ",
    "commune": "Alger Centre",
    "commune_ar": "الجزائر الوسطى",
    "lat": "36.767355",
    "lon": "3.048124"
  },
  {
    "nom": "Parc TIFARITI",
    "nom_ar": "حديقة تيفاريتي",
    "commune": "Alger Centre",
    "commune_ar": "الجزائر الوسطى",
    "lat": "36.764282",
    "lon": "3.044256"
  },
  {
    "nom": "Parc TIFARITI",
    "nom_ar": "حديقة تيفاريتي",
    "commune": "Alger Centre",
    "commune_ar": "الجزائر الوسطى",
    "lat": "36.764375",
    "lon": "3.044224"
  },
  {
    "nom": "Place GEAY",
    "nom_ar": "ساحة غاي ",
    "commune": "Alger Centre",
    "commune_ar": "الجزائر الوسطى",
    "lat": "36.770617",
    "lon": "3.050004"
  },
  {
    "nom": "Port d Alger",
    "nom_ar": "ميناء الجزائر ",
    "commune": "Alger Centre",
    "commune_ar": "الجزائر الوسطى",
    "lat": "36.774246",
    "lon": "3.061622"
  },
  {
    "nom": "Port d Alger",
    "nom_ar": "ميناء الجزائر ",
    "commune": "Alger Centre",
    "commune_ar": "الجزائر الوسطى",
    "lat": "36.774793",
    "lon": "3.061128"
  },
  {
    "nom": "Port Said (Square)",
    "nom_ar": "بور سعيد (سكوار)",
    "commune": "Alger Centre",
    "commune_ar": "الجزائر الوسطى",
    "lat": "36.780884",
    "lon": "3.061815"
  },
  {
    "nom": "Port Said (Square)",
    "nom_ar": "بور سعيد (سكوار)",
    "commune": "Alger Centre",
    "commune_ar": "الجزائر الوسطى",
    "lat": "36.781002",
    "lon": "3.061811"
  },
  {
    "nom": "Sonelgaz",
    "nom_ar": "سونلغاز ",
    "commune": "Alger Centre",
    "commune_ar": "الجزائر الوسطى",
    "lat": "36.773617",
    "lon": "3.052875"
  },
  {
    "nom": "Sonelgaz",
    "nom_ar": "سونلغاز ",
    "commune": "Alger Centre",
    "commune_ar": "الجزائر الوسطى",
    "lat": "36.773782",
    "lon": "3.053034"
  },
  {
    "nom": "Station 2 Mai",
    "nom_ar": "محطة الحافلات 2 ماي ",
    "commune": "Alger Centre",
    "commune_ar": "الجزائر الوسطى",
    "lat": "36.764564",
    "lon": "3.058462"
  },
  {
    "nom": "Station 2 Mai",
    "nom_ar": "محطة الحافلات 2 ماي ",
    "commune": "Alger Centre",
    "commune_ar": "الجزائر الوسطى",
    "lat": "36.7654",
    "lon": "3.058379"
  },
  {
    "nom": "Tunnel des Facultes",
    "nom_ar": "نفق الكليات ",
    "commune": "Alger Centre",
    "commune_ar": "الجزائر الوسطى",
    "lat": "36.770578",
    "lon": "3.055472"
  },
  {
    "nom": "Ziroud Youcef (Hotel Saphir)",
    "nom_ar": "زيغود يوسف (فندق السفير)",
    "commune": "Alger Centre",
    "commune_ar": "الجزائر الوسطى",
    "lat": "36.777664",
    "lon": "3.060203"
  },
  {
    "nom": "Ziroud Youcef (Hotel Saphir)",
    "nom_ar": "زيغود يوسف (فندق السفير)",
    "commune": "Alger Centre",
    "commune_ar": "الجزائر الوسطى",
    "lat": "36.777694",
    "lon": "3.060359"
  },
  {
    "nom": "Diar Djemaa",
    "nom_ar": "ديار الجماعة ",
    "commune": "El Harrach",
    "commune_ar": "الحراش",
    "lat": "36.728387",
    "lon": "3.128373"
  },
  {
    "nom": "Boumati AADL",
    "nom_ar": "بومعطي (عدل)",
    "commune": "El Harrach",
    "commune_ar": "الحراش",
    "lat": "36.714922",
    "lon": "3.139967"
  },
  {
    "nom": "Boumati",
    "nom_ar": "بومعطي ",
    "commune": "El Harrach",
    "commune_ar": "الحراش",
    "lat": "36.714623",
    "lon": "3.141177"
  },
  {
    "nom": "El Harrach",
    "nom_ar": "الحراش ",
    "commune": "El Harrach",
    "commune_ar": "الحراش",
    "lat": "36.721639",
    "lon": "3.135912"
  },
  {
    "nom": "El Harrach",
    "nom_ar": "الحراش ",
    "commune": "El Harrach",
    "commune_ar": "الحراش",
    "lat": "36.722116",
    "lon": "3.135782"
  },
  {
    "nom": "El Mohammadia",
    "nom_ar": "المحمدية ",
    "commune": "El Harrach",
    "commune_ar": "الحراش",
    "lat": "36.729626",
    "lon": "3.136205"
  },
  {
    "nom": "Gare de Train El Harrach",
    "nom_ar": "محطة القطار الحراش ",
    "commune": "El Harrach",
    "commune_ar": "الحراش",
    "lat": "36.722148",
    "lon": "3.133022"
  },
  {
    "nom": "Hopital Zmirli",
    "nom_ar": "مستشفى زميرلي ",
    "commune": "El Harrach",
    "commune_ar": "الحراش",
    "lat": "36.704201",
    "lon": "3.125536"
  },
  {
    "nom": "Hopital Zmirli",
    "nom_ar": "مستشفى زميرلي ",
    "commune": "El Harrach",
    "commune_ar": "الحراش",
    "lat": "36.704409",
    "lon": "3.125647"
  },
  {
    "nom": "Kourifa 1",
    "nom_ar": "كوريفا 1",
    "commune": "El Harrach",
    "commune_ar": "الحراش",
    "lat": "36.704652",
    "lon": "3.136178"
  },
  {
    "nom": "Kourifa 1",
    "nom_ar": "كوريفا 1",
    "commune": "El Harrach",
    "commune_ar": "الحراش",
    "lat": "36.704261",
    "lon": "3.136212"
  },
  {
    "nom": "Kourifa 2",
    "nom_ar": "كوريفا 2",
    "commune": "El Harrach",
    "commune_ar": "الحراش",
    "lat": "36.702162",
    "lon": "3.137475"
  },
  {
    "nom": "Kourifa 2",
    "nom_ar": "كوريفا 2",
    "commune": "El Harrach",
    "commune_ar": "الحراش",
    "lat": "36.702222",
    "lon": "3.137524"
  },
  {
    "nom": "Naftal",
    "nom_ar": "نفطال ",
    "commune": "El Harrach",
    "commune_ar": "الحراش",
    "lat": "36.710381",
    "lon": "3.135275"
  },
  {
    "nom": "Naftal",
    "nom_ar": "نفطال ",
    "commune": "El Harrach",
    "commune_ar": "الحراش",
    "lat": "36.710414",
    "lon": "3.135161"
  },
  {
    "nom": "Trois Caves",
    "nom_ar": "الدهاليز الثلاث (تروى كاف) ",
    "commune": "El Harrach",
    "commune_ar": "الحراش",
    "lat": "36.70768",
    "lon": "3.129003"
  },
  {
    "nom": "Trois Caves",
    "nom_ar": "الدهاليز الثلاث (تروى كاف) ",
    "commune": "El Harrach",
    "commune_ar": "الحراش",
    "lat": "36.707823",
    "lon": "3.129065"
  },
  {
    "nom": "Bainem",
    "nom_ar": "باينام ",
    "commune": "El Hammamet",
    "commune_ar": "الحمامات",
    "lat": "36.813654",
    "lon": "2.972153"
  },
  {
    "nom": "Bainem",
    "nom_ar": "باينام ",
    "commune": "El Hammamet",
    "commune_ar": "الحمامات",
    "lat": "36.813748",
    "lon": "2.970594"
  },
  {
    "nom": "Bainem Falaise",
    "nom_ar": "باينام فالاز",
    "commune": "El Hammamet",
    "commune_ar": "الحمامات",
    "lat": "36.813047",
    "lon": "2.964288"
  },
  {
    "nom": "Bainem Falaise",
    "nom_ar": "باينام فالاز",
    "commune": "El Hammamet",
    "commune_ar": "الحمامات",
    "lat": "36.813069",
    "lon": "2.96418"
  },
  {
    "nom": "Bainem Lafayette",
    "nom_ar": "باينام لفايات ",
    "commune": "El Hammamet",
    "commune_ar": "الحمامات",
    "lat": "36.813294",
    "lon": "2.979843"
  },
  {
    "nom": "Bainem Lafayette",
    "nom_ar": "باينام لفايات ",
    "commune": "El Hammamet",
    "commune_ar": "الحمامات",
    "lat": "36.813497",
    "lon": "2.979279"
  },
  {
    "nom": "Bains Romains",
    "nom_ar": "بان رومان ",
    "commune": "El Hammamet",
    "commune_ar": "الحمامات",
    "lat": "36.813297",
    "lon": "2.99091"
  },
  {
    "nom": "Bains Romains",
    "nom_ar": "بان رومان ",
    "commune": "El Hammamet",
    "commune_ar": "الحمامات",
    "lat": "36.813455",
    "lon": "2.991112"
  },
  {
    "nom": "Belvedere",
    "nom_ar": "بلفدار ",
    "commune": "El Hammamet",
    "commune_ar": "الحمامات",
    "lat": "36.812801",
    "lon": "2.983668"
  },
  {
    "nom": "Belvedere",
    "nom_ar": "بلفدار ",
    "commune": "El Hammamet",
    "commune_ar": "الحمامات",
    "lat": "36.812847",
    "lon": "2.984054"
  },
  {
    "nom": "Cité Boukikaz Amar",
    "nom_ar": "حي بوكيكاز اعمر ",
    "commune": "El Hammamet",
    "commune_ar": "الحمامات",
    "lat": "36.80849",
    "lon": "2.948058"
  },
  {
    "nom": "Cité Boukikaz Amar",
    "nom_ar": "حي بوكيكاز اعمر ",
    "commune": "El Hammamet",
    "commune_ar": "الحمامات",
    "lat": "36.808602",
    "lon": "2.948142"
  },
  {
    "nom": "Grand Rocher",
    "nom_ar": "الصخرة الكبيرة ",
    "commune": "El Hammamet",
    "commune_ar": "الحمامات",
    "lat": "36.807258",
    "lon": "2.94413"
  },
  {
    "nom": "Grand Rocher",
    "nom_ar": "الصخرة الكبيرة ",
    "commune": "El Hammamet",
    "commune_ar": "الحمامات",
    "lat": "36.807308",
    "lon": "2.944181"
  },
  {
    "nom": "Le Phare",
    "nom_ar": "المنارة (لوفار)",
    "commune": "El Hammamet",
    "commune_ar": "الحمامات",
    "lat": "36.810978",
    "lon": "2.954169"
  },
  {
    "nom": "Le Phare",
    "nom_ar": "المنارة (لوفار)",
    "commune": "El Hammamet",
    "commune_ar": "الحمامات",
    "lat": "36.811023",
    "lon": "2.954895"
  },
  {
    "nom": "Les Tamaris",
    "nom_ar": "تماريس ",
    "commune": "El Hammamet",
    "commune_ar": "الحمامات",
    "lat": "36.811604",
    "lon": "2.96024"
  },
  {
    "nom": "Les Tamaris",
    "nom_ar": "تماريس ",
    "commune": "El Hammamet",
    "commune_ar": "الحمامات",
    "lat": "36.811747",
    "lon": "2.960452"
  },
  {
    "nom": "Cité 1200 Logts Sidi Slimane",
    "nom_ar": "حي 1200 مسكن سيدي سليمان ",
    "commune": "Khraicia",
    "commune_ar": "الخرايسية",
    "lat": "36.656376",
    "lon": "3.011327"
  },
  {
    "nom": "Cité 1200 Logts Sidi Slimane",
    "nom_ar": "حي 1200 مسكن سيدي سليمان ",
    "commune": "Khraicia",
    "commune_ar": "الخرايسية",
    "lat": "36.656378",
    "lon": "3.011395"
  },
  {
    "nom": "Cité Laroussi Hamoud",
    "nom_ar": "حي لعروسي حمود",
    "commune": "Khraicia",
    "commune_ar": "الخرايسية",
    "lat": "36.65672",
    "lon": "3.016935"
  },
  {
    "nom": "Cité Laroussi Hamoud",
    "nom_ar": "حي لعروسي حمود",
    "commune": "Khraicia",
    "commune_ar": "الخرايسية",
    "lat": "36.65674",
    "lon": "3.016836"
  },
  {
    "nom": "Haouch El Gazouz",
    "nom_ar": "حوش القازوز",
    "commune": "Khraicia",
    "commune_ar": "الخرايسية",
    "lat": "36.66457",
    "lon": "3.015559"
  },
  {
    "nom": "Haouche El Gazouz",
    "nom_ar": "حوش القازوز",
    "commune": "Khraicia",
    "commune_ar": "الخرايسية",
    "lat": "36.664624",
    "lon": "3.015492"
  },
  {
    "nom": "Aeroport d Alger HOUARI Boumediene",
    "nom_ar": "مطار الجزائر هواري بومدين ",
    "commune": "Dar El Beida",
    "commune_ar": "الدار البيضاء",
    "lat": "36.702691",
    "lon": "3.208742"
  },
  {
    "nom": "Cité 5 Juillet BEZ",
    "nom_ar": "حي 5 جويلية باب الزوار ",
    "commune": "Dar El Beida",
    "commune_ar": "الدار البيضاء",
    "lat": "36.720309",
    "lon": "3.201678"
  },
  {
    "nom": "Cité 5 Juillet BEZ",
    "nom_ar": "حي 5 جويلية باب الزوار",
    "commune": "Dar El Beida",
    "commune_ar": "الدار البيضاء",
    "lat": "36.720472",
    "lon": "3.201739"
  },
  {
    "nom": "Cité 5 Juillet BEZ (2)",
    "nom_ar": "حي 5 جويلية باب الزوار (2)",
    "commune": "Dar El Beida",
    "commune_ar": "الدار البيضاء",
    "lat": "36.722757",
    "lon": "3.198541"
  },
  {
    "nom": "Commissariat de Police El Hamiz",
    "nom_ar": "دائرة الأمن الحميز ",
    "commune": "Dar El Beida",
    "commune_ar": "الدار البيضاء",
    "lat": "36.729639",
    "lon": "3.229249"
  },
  {
    "nom": "El Hamiz",
    "nom_ar": "الحميز ",
    "commune": "Dar El Beida",
    "commune_ar": "الدار البيضاء",
    "lat": "36.731021",
    "lon": "3.239628"
  },
  {
    "nom": "El Hamiz",
    "nom_ar": "الحميز ",
    "commune": "Dar El Beida",
    "commune_ar": "الدار البيضاء",
    "lat": "36.731037",
    "lon": "3.240323"
  },
  {
    "nom": "El Merdja",
    "nom_ar": "المرجة ",
    "commune": "Dar El Beida",
    "commune_ar": "الدار البيضاء",
    "lat": "36.725996",
    "lon": "3.200049"
  },
  {
    "nom": "El Merdja",
    "nom_ar": "المرجة ",
    "commune": "Dar El Beida",
    "commune_ar": "الدار البيضاء",
    "lat": "36.726003",
    "lon": "3.200609"
  },
  {
    "nom": "SNTP",
    "nom_ar": "المؤسسة الوطنية للأشغال العمومية ",
    "commune": "Dar El Beida",
    "commune_ar": "الدار البيضاء",
    "lat": "36.728315",
    "lon": "3.218127"
  },
  {
    "nom": "SNTP",
    "nom_ar": "المؤسسة الوطنية للأشغال العمومية ",
    "commune": "Dar El Beida",
    "commune_ar": "الدار البيضاء",
    "lat": "36.728172",
    "lon": "3.217687"
  },
  {
    "nom": "Horizons Bleus",
    "nom_ar": "الأفق الأزرق ",
    "commune": "Rais Hamidou",
    "commune_ar": "الرايس حميدو",
    "lat": "36.815772",
    "lon": "3.001552"
  },
  {
    "nom": "Horizons Bleus",
    "nom_ar": "الافق الأزرق ",
    "commune": "Rais Hamidou",
    "commune_ar": "الرايس حميدو",
    "lat": "36.815818",
    "lon": "3.001922"
  },
  {
    "nom": "La Vigie",
    "nom_ar": "لافيجي ",
    "commune": "Rais Hamidou",
    "commune_ar": "الرايس حميدو",
    "lat": "36.812556",
    "lon": "3.021574"
  },
  {
    "nom": "La Vigie",
    "nom_ar": "لافيجي ",
    "commune": "Rais Hamidou",
    "commune_ar": "الرايس حميدو",
    "lat": "36.813089",
    "lon": "3.021138"
  },
  {
    "nom": "Miramar",
    "nom_ar": "ميرامار ",
    "commune": "Rais Hamidou",
    "commune_ar": "الرايس حميدو",
    "lat": "36.814715",
    "lon": "2.996389"
  },
  {
    "nom": "Miramar",
    "nom_ar": "ميرامار ",
    "commune": "Rais Hamidou",
    "commune_ar": "الرايس حميدو",
    "lat": "36.81487",
    "lon": "2.997611"
  },
  {
    "nom": "Rais Hamidou 1",
    "nom_ar": "رايس حميدو 1",
    "commune": "Rais Hamidou",
    "commune_ar": "الرايس حميدو",
    "lat": "36.816766",
    "lon": "3.014317"
  },
  {
    "nom": "Rais Hamidou 1",
    "nom_ar": "رايس حميدو 1",
    "commune": "Rais Hamidou",
    "commune_ar": "الرايس حميدو",
    "lat": "36.816828",
    "lon": "3.014282"
  },
  {
    "nom": "Rais Hamidou 2",
    "nom_ar": "رايس حميدو 2",
    "commune": "Rais Hamidou",
    "commune_ar": "الرايس حميدو",
    "lat": "36.817161",
    "lon": "3.009372"
  },
  {
    "nom": "Rais Hamidou 2",
    "nom_ar": "رايس حميدو 2",
    "commune": "Rais Hamidou",
    "commune_ar": "الرايس حميدو",
    "lat": "36.817202",
    "lon": "3.009303"
  },
  {
    "nom": "Chentaba",
    "nom_ar": "شنطابة ",
    "commune": "Rahmania",
    "commune_ar": "الرحمانية",
    "lat": "36.697543",
    "lon": "2.921558"
  },
  {
    "nom": "Ciemtiere des Martyrs",
    "nom_ar": "مقبرة الشهداء ",
    "commune": "Reghaia",
    "commune_ar": "الرغاية",
    "lat": "36.737326",
    "lon": "3.358606"
  },
  {
    "nom": "Cimetiere des Martyrs",
    "nom_ar": "مقبرة الشهداء ",
    "commune": "Reghaia",
    "commune_ar": "الرغاية",
    "lat": "36.737194",
    "lon": "3.358886"
  },
  {
    "nom": "Cité DNC",
    "nom_ar": "حي الديانسي ",
    "commune": "Reghaia",
    "commune_ar": "الرغاية",
    "lat": "36.750157",
    "lon": "3.34236"
  },
  {
    "nom": "Cité DNC",
    "nom_ar": "حي الديانسي ",
    "commune": "Reghaia",
    "commune_ar": "الرغاية",
    "lat": "36.750456",
    "lon": "3.342414"
  },
  {
    "nom": "Cité Faouci",
    "nom_ar": "حي فعوصي ",
    "commune": "Reghaia",
    "commune_ar": "الرغاية",
    "lat": "36.734783",
    "lon": "3.350364"
  },
  {
    "nom": "Cité Faouci",
    "nom_ar": "حي فعوصي ",
    "commune": "Reghaia",
    "commune_ar": "الرغاية",
    "lat": "36.734809",
    "lon": "3.350261"
  },
  {
    "nom": "Cité Les Aures",
    "nom_ar": "حي الأوراس ",
    "commune": "Reghaia",
    "commune_ar": "الرغاية",
    "lat": "36.731425",
    "lon": "3.337338"
  },
  {
    "nom": "Cité les Aures",
    "nom_ar": "حي الأوراس ",
    "commune": "Reghaia",
    "commune_ar": "الرغاية",
    "lat": "36.731523",
    "lon": "3.337399"
  },
  {
    "nom": "Cité AADL 1",
    "nom_ar": "حي عدل 1",
    "commune": "Reghaia",
    "commune_ar": "الرغاية",
    "lat": "36.734262",
    "lon": "3.36797"
  },
  {
    "nom": "Cité AADL 1",
    "nom_ar": "حي عدل 1",
    "commune": "Reghaia",
    "commune_ar": "الرغاية",
    "lat": "36.734545",
    "lon": "3.367303"
  },
  {
    "nom": "Cité AADL 2",
    "nom_ar": "حي عدل 2",
    "commune": "Reghaia",
    "commune_ar": "الرغاية",
    "lat": "36.732923",
    "lon": "3.372099"
  },
  {
    "nom": "Cité AADL 2",
    "nom_ar": "حي عدل 2",
    "commune": "Reghaia",
    "commune_ar": "الرغاية",
    "lat": "36.733168",
    "lon": "3.37121"
  },
  {
    "nom": "Djezzy",
    "nom_ar": "جازي ",
    "commune": "Reghaia",
    "commune_ar": "الرغاية",
    "lat": "36.74622",
    "lon": "3.342542"
  },
  {
    "nom": "Djezzy",
    "nom_ar": "جازي ",
    "commune": "Reghaia",
    "commune_ar": "الرغاية",
    "lat": "36.746455",
    "lon": "3.342601"
  },
  {
    "nom": "El Kerrouche",
    "nom_ar": "الكروش ",
    "commune": "Reghaia",
    "commune_ar": "الرغاية",
    "lat": "36.730155",
    "lon": "3.371823"
  },
  {
    "nom": "El Kerrouche",
    "nom_ar": "الكروش ",
    "commune": "Reghaia",
    "commune_ar": "الرغاية",
    "lat": "36.7302",
    "lon": "3.372144"
  },
  {
    "nom": "Entree Reghaia",
    "nom_ar": "مدخل الرغاية ",
    "commune": "Reghaia",
    "commune_ar": "الرغاية",
    "lat": "36.738569",
    "lon": "3.338837"
  },
  {
    "nom": "Entreprise de Grands Travaux Petroliers",
    "nom_ar": "مؤسسة الأشغال البترولية الكبرى ",
    "commune": "Reghaia",
    "commune_ar": "الرغاية",
    "lat": "36.726428",
    "lon": "3.326509"
  },
  {
    "nom": "Entreprise de Grands Travaux Petroliers",
    "nom_ar": "مؤسسة الأشغال البترولية الكبرى ",
    "commune": "Reghaia",
    "commune_ar": "الرغاية",
    "lat": "36.726449",
    "lon": "3.326554"
  },
  {
    "nom": "Gare Routiere Reghaia",
    "nom_ar": "المحطة البرية الرغاية ",
    "commune": "Reghaia",
    "commune_ar": "الرغاية",
    "lat": "36.734071",
    "lon": "3.344306"
  },
  {
    "nom": "Gare Routiere Reghaia",
    "nom_ar": "المحطة البرية الرغاية ",
    "commune": "Reghaia",
    "commune_ar": "الرغاية",
    "lat": "36.7341",
    "lon": "3.344158"
  },
  {
    "nom": "Marché Reghaia",
    "nom_ar": "السوق ",
    "commune": "Reghaia",
    "commune_ar": "الرغاية",
    "lat": "36.736709",
    "lon": "3.342565"
  },
  {
    "nom": "Marché Reghaia",
    "nom_ar": "السوق ",
    "commune": "Reghaia",
    "commune_ar": "الرغاية",
    "lat": "36.736716",
    "lon": "3.342634"
  },
  {
    "nom": "LSP Batigec",
    "nom_ar": "باتيجاك",
    "commune": "Reghaia",
    "commune_ar": "الرغاية",
    "lat": "36.738447",
    "lon": "3.332586"
  },
  {
    "nom": "LSP Batigec",
    "nom_ar": "باتيجاك",
    "commune": "Reghaia",
    "commune_ar": "الرغاية",
    "lat": "36.738564",
    "lon": "3.332514"
  },
  {
    "nom": "Mosquee Tarek Ibn Ziyed",
    "nom_ar": "مسجد طارق بن زياد ",
    "commune": "Reghaia",
    "commune_ar": "الرغاية",
    "lat": "36.729952",
    "lon": "3.334525"
  },
  {
    "nom": "Mosquee Tarek Ibn Ziyed",
    "nom_ar": "مسجد طارق بن زياد ",
    "commune": "Reghaia",
    "commune_ar": "الرغاية",
    "lat": "36.729971",
    "lon": "3.334672"
  },
  {
    "nom": "Place des Martyrs Reghaia",
    "nom_ar": "ساحة الشهداء الرغاية ",
    "commune": "Reghaia",
    "commune_ar": "الرغاية",
    "lat": "36.741445",
    "lon": "3.342904"
  },
  {
    "nom": "Place des Martyrs Reghaia",
    "nom_ar": "ساحة الشهداء الرغاية ",
    "commune": "Reghaia",
    "commune_ar": "الرغاية",
    "lat": "36.742348",
    "lon": "3.342722"
  },
  {
    "nom": "Seal Heuraoua",
    "nom_ar": "سيال هراوة ",
    "commune": "Reghaia",
    "commune_ar": "الرغاية",
    "lat": "36.759012",
    "lon": "3.333096"
  },
  {
    "nom": "Seal Heuraoua",
    "nom_ar": "سيال هراوة ",
    "commune": "Reghaia",
    "commune_ar": "الرغاية",
    "lat": "36.759069",
    "lon": "3.333411"
  },
  {
    "nom": "Seal Heuraoua",
    "nom_ar": "سيال هراوة ",
    "commune": "Reghaia",
    "commune_ar": "الرغاية",
    "lat": "36.759234",
    "lon": "3.333567"
  },
  {
    "nom": "Seal Heuraoua",
    "nom_ar": "سيال هراوة ",
    "commune": "Reghaia",
    "commune_ar": "الرغاية",
    "lat": "36.759552",
    "lon": "3.333625"
  },
  {
    "nom": "Sortie Reghaia",
    "nom_ar": "مخرج الرغاية ",
    "commune": "Reghaia",
    "commune_ar": "الرغاية",
    "lat": "36.738672",
    "lon": "3.338532"
  },
  {
    "nom": "Ben Choubane - Chateau d eau",
    "nom_ar": "بن شوبان خزان الماء",
    "commune": "Rouiba",
    "commune_ar": "الرويبة",
    "lat": "36.709272",
    "lon": "3.280258"
  },
  {
    "nom": "Ben Choubane - Chateau d eau",
    "nom_ar": "بن شوبان خزان الماء",
    "commune": "Rouiba",
    "commune_ar": "الرويبة",
    "lat": "36.709303",
    "lon": "3.28025"
  },
  {
    "nom": "Cimetiere de Rouiba (El Guedehia)",
    "nom_ar": "مقبرة الرويبة (القدحية) ",
    "commune": "Rouiba",
    "commune_ar": "الرويبة",
    "lat": "36.718682",
    "lon": "3.286132"
  },
  {
    "nom": "Cimetiere de Rouiba (El Guedehia)",
    "nom_ar": "مقبرة الرويبة (القدحية) ",
    "commune": "Rouiba",
    "commune_ar": "الرويبة",
    "lat": "36.719122",
    "lon": "3.285969"
  },
  {
    "nom": "Cité 1540 Logts",
    "nom_ar": "حي 1540 مسكن ",
    "commune": "Rouiba",
    "commune_ar": "الرويبة",
    "lat": "36.756141",
    "lon": "3.249778"
  },
  {
    "nom": "Cité 1540 Logts 2",
    "nom_ar": "حي 1540 مسكن 2",
    "commune": "Rouiba",
    "commune_ar": "الرويبة",
    "lat": "36.753038",
    "lon": "3.25074"
  },
  {
    "nom": "Cité 1540 Logts 2",
    "nom_ar": "حي 1540 مسكن 2",
    "commune": "Rouiba",
    "commune_ar": "الرويبة",
    "lat": "36.753178",
    "lon": "3.250591"
  },
  {
    "nom": "Cité Boualem El Aloui",
    "nom_ar": "حي بوعلام العلوي ",
    "commune": "Rouiba",
    "commune_ar": "الرويبة",
    "lat": "36.773837",
    "lon": "3.279822"
  },
  {
    "nom": "Cité Boualem El Aloui",
    "nom_ar": "حي بوعلام العلوي ",
    "commune": "Rouiba",
    "commune_ar": "الرويبة",
    "lat": "36.773764",
    "lon": "3.280174"
  },
  {
    "nom": "Cité Chabou",
    "nom_ar": "حي شابو ",
    "commune": "Rouiba",
    "commune_ar": "الرويبة",
    "lat": "36.777037",
    "lon": "3.270501"
  },
  {
    "nom": "Cité Chabou",
    "nom_ar": "حي شابو ",
    "commune": "Rouiba",
    "commune_ar": "الرويبة",
    "lat": "36.777109",
    "lon": "3.270563"
  },
  {
    "nom": "Cité Ennasr",
    "nom_ar": "حي النصر ",
    "commune": "Rouiba",
    "commune_ar": "الرويبة",
    "lat": "36.731895",
    "lon": "3.24724"
  },
  {
    "nom": "Cité Ennasr",
    "nom_ar": "حي النصر ",
    "commune": "Rouiba",
    "commune_ar": "الرويبة",
    "lat": "36.731955",
    "lon": "3.246964"
  },
  {
    "nom": "Domaine Si Boualem",
    "nom_ar": "دومان سي بوعلام ",
    "commune": "Rouiba",
    "commune_ar": "الرويبة",
    "lat": "36.772997",
    "lon": "3.281602"
  },
  {
    "nom": "Domaine Si Boualem",
    "nom_ar": "دومان سي بوعلام ",
    "commune": "Rouiba",
    "commune_ar": "الرويبة",
    "lat": "36.773101",
    "lon": "3.281611"
  },
  {
    "nom": "Domaine Si Boualem 1",
    "nom_ar": "دومان سي بوعلام 1",
    "commune": "Rouiba",
    "commune_ar": "الرويبة",
    "lat": "36.767849",
    "lon": "3.287942"
  },
  {
    "nom": "Douar Ben Ziane",
    "nom_ar": "دوار بن زبان ",
    "commune": "Rouiba",
    "commune_ar": "الرويبة",
    "lat": "36.757444",
    "lon": "3.249484"
  },
  {
    "nom": "Ecole Primaire",
    "nom_ar": "المدرسة الابتدائية ",
    "commune": "Rouiba",
    "commune_ar": "الرويبة",
    "lat": "36.70842",
    "lon": "3.287847"
  },
  {
    "nom": "Ecole Primaire",
    "nom_ar": "المدرسة الابتدائية ",
    "commune": "Rouiba",
    "commune_ar": "الرويبة",
    "lat": "36.708437",
    "lon": "3.287922"
  },
  {
    "nom": "ENMS",
    "nom_ar": "ENMS",
    "commune": "Rouiba",
    "commune_ar": "الرويبة",
    "lat": "36.737539",
    "lon": "3.300913"
  },
  {
    "nom": "ENMS",
    "nom_ar": "ENMS",
    "commune": "Rouiba",
    "commune_ar": "الرويبة",
    "lat": "36.737734",
    "lon": "3.300824"
  },
  {
    "nom": "Genericlab",
    "nom_ar": "جينيريكلاب ",
    "commune": "Rouiba",
    "commune_ar": "الرويبة",
    "lat": "36.724388",
    "lon": "3.302059"
  },
  {
    "nom": "Genericlab",
    "nom_ar": "جينيريكلاب",
    "commune": "Rouiba",
    "commune_ar": "الرويبة",
    "lat": "36.724585",
    "lon": "3.302192"
  },
  {
    "nom": "Hopital Rouiba",
    "nom_ar": "مستشفى الرويبة ",
    "commune": "Rouiba",
    "commune_ar": "الرويبة",
    "lat": "36.736782",
    "lon": "3.285729"
  },
  {
    "nom": "INFORBA",
    "nom_ar": "أنفوربا ",
    "commune": "Rouiba",
    "commune_ar": "الرويبة",
    "lat": "36.735198",
    "lon": "3.272631"
  },
  {
    "nom": "INFORBA",
    "nom_ar": "أنفوربا ",
    "commune": "Rouiba",
    "commune_ar": "الرويبة",
    "lat": "36.735455",
    "lon": "3.275206"
  },
  {
    "nom": "La Base",
    "nom_ar": "القاعدة ",
    "commune": "Rouiba",
    "commune_ar": "الرويبة",
    "lat": "36.721679",
    "lon": "3.285515"
  },
  {
    "nom": "La Base",
    "nom_ar": "القاعدة ",
    "commune": "Rouiba",
    "commune_ar": "الرويبة",
    "lat": "36.721913",
    "lon": "3.285411"
  },
  {
    "nom": "Mosquee Ali Ben Abi Talab",
    "nom_ar": "مسجد علي بن أبي طالب ",
    "commune": "Rouiba",
    "commune_ar": "الرويبة",
    "lat": "36.708343",
    "lon": "3.290367"
  },
  {
    "nom": "Mosquee Ali Ben Abi Talab",
    "nom_ar": "مسجد علي بن أبي طالب ",
    "commune": "Rouiba",
    "commune_ar": "الرويبة",
    "lat": "36.708326",
    "lon": "3.290197"
  },
  {
    "nom": "Mouatsa 1",
    "nom_ar": "مواتسة 1",
    "commune": "Rouiba",
    "commune_ar": "الرويبة",
    "lat": "36.714855",
    "lon": "3.284703"
  },
  {
    "nom": "Mouatsa 1",
    "nom_ar": "مواتسة 1",
    "commune": "Rouiba",
    "commune_ar": "الرويبة",
    "lat": "36.715081",
    "lon": "3.284084"
  },
  {
    "nom": "Mouatsa 2",
    "nom_ar": "مواتسة 2",
    "commune": "Rouiba",
    "commune_ar": "الرويبة",
    "lat": "36.713803",
    "lon": "3.289067"
  },
  {
    "nom": "Mouatsa 2",
    "nom_ar": "مواتسة 2",
    "commune": "Rouiba",
    "commune_ar": "الرويبة",
    "lat": "36.713921",
    "lon": "3.288854"
  },
  {
    "nom": "Polyclinique",
    "nom_ar": "عيادة متتعددة الخدمات ",
    "commune": "Rouiba",
    "commune_ar": "الرويبة",
    "lat": "36.708781",
    "lon": "3.285389"
  },
  {
    "nom": "Polyclinique",
    "nom_ar": "عيادة متتعددة الخدمات ",
    "commune": "Rouiba",
    "commune_ar": "الرويبة",
    "lat": "36.708805",
    "lon": "3.285421"
  },
  {
    "nom": "Protection Civile",
    "nom_ar": "الحماية المدنية ",
    "commune": "Rouiba",
    "commune_ar": "الرويبة",
    "lat": "36.709042",
    "lon": "3.283111"
  },
  {
    "nom": "Rouiba",
    "nom_ar": "الرويبة ",
    "commune": "Rouiba",
    "commune_ar": "الرويبة",
    "lat": "36.740387",
    "lon": "3.283949"
  },
  {
    "nom": "Rouiba",
    "nom_ar": "الرويبة ",
    "commune": "Rouiba",
    "commune_ar": "الرويبة",
    "lat": "36.740405",
    "lon": "3.284081"
  },
  {
    "nom": "Gare de Train Rouiba",
    "nom_ar": "محطة القطار الرويبة  ",
    "commune": "Rouiba",
    "commune_ar": "الرويبة",
    "lat": "36.732617",
    "lon": "3.283275"
  },
  {
    "nom": "Gare de Train Rouiba",
    "nom_ar": "محطة القطار الرويبة  ",
    "commune": "Rouiba",
    "commune_ar": "الرويبة",
    "lat": "36.732623",
    "lon": "3.283315"
  },
  {
    "nom": "Gare de Train Rouiba Zone Industrielle",
    "nom_ar": "محطة القطار المنطقة الصناعية الرويبة ",
    "commune": "Rouiba",
    "commune_ar": "الرويبة",
    "lat": "36.733232",
    "lon": "3.301424"
  },
  {
    "nom": "Sbaat",
    "nom_ar": "سباعات ",
    "commune": "Rouiba",
    "commune_ar": "الرويبة",
    "lat": "36.71063",
    "lon": "3.292436"
  },
  {
    "nom": "Sbaat",
    "nom_ar": "سباعات ",
    "commune": "Rouiba",
    "commune_ar": "الرويبة",
    "lat": "36.710647",
    "lon": "3.292342"
  },
  {
    "nom": "SNVI",
    "nom_ar": "الشركة الوطنية للسيارات الصناعية",
    "commune": "Rouiba",
    "commune_ar": "الرويبة",
    "lat": "36.737911",
    "lon": "3.313137"
  },
  {
    "nom": "SNVI",
    "nom_ar": "الشركة الوطنية للسيارات الصناعية",
    "commune": "Rouiba",
    "commune_ar": "الرويبة",
    "lat": "36.737993",
    "lon": "3.313094"
  },
  {
    "nom": "Souachette",
    "nom_ar": "صواشات ",
    "commune": "Rouiba",
    "commune_ar": "الرويبة",
    "lat": "36.744574",
    "lon": "3.252294"
  },
  {
    "nom": "TVC",
    "nom_ar": "شركة نقل المسافرين وسط",
    "commune": "Rouiba",
    "commune_ar": "الرويبة",
    "lat": "36.733727",
    "lon": "3.261474"
  },
  {
    "nom": "TVC",
    "nom_ar": "شركة نقل المسافرين وسط",
    "commune": "Rouiba",
    "commune_ar": "الرويبة",
    "lat": "36.733728",
    "lon": "3.260847"
  },
  {
    "nom": "Usine Aigle",
    "nom_ar": "مصنع ايغل",
    "commune": "Rouiba",
    "commune_ar": "الرويبة",
    "lat": "36.725195",
    "lon": "3.311992"
  },
  {
    "nom": "Usine Aigle",
    "nom_ar": "مصنع ايغل",
    "commune": "Rouiba",
    "commune_ar": "الرويبة",
    "lat": "36.725213",
    "lon": "3.312031"
  },
  {
    "nom": "Ain Allah",
    "nom_ar": "عين الله ",
    "commune": "El Achour",
    "commune_ar": "العاشور",
    "lat": "36.747023",
    "lon": "2.99601"
  },
  {
    "nom": "Ain Allah",
    "nom_ar": "عين الله ",
    "commune": "El Achour",
    "commune_ar": "العاشور",
    "lat": "36.747592",
    "lon": "2.994322"
  },
  {
    "nom": "Les Grands Vents",
    "nom_ar": "الرياح الكبرى",
    "commune": "El Achour",
    "commune_ar": "العاشور",
    "lat": "36.736264",
    "lon": "2.971177"
  },
  {
    "nom": "Ouled Fayet Chateau d eau ",
    "nom_ar": "أولاد فايت خزان الماء",
    "commune": "El Achour",
    "commune_ar": "العاشور",
    "lat": "36.732782",
    "lon": "2.965818"
  },
  {
    "nom": "ONPS",
    "nom_ar": "الديوان الوطني للمطبوعات المدرسية",
    "commune": "El Achour",
    "commune_ar": "العاشور",
    "lat": "36.744579",
    "lon": "2.996095"
  },
  {
    "nom": "Oued Romane",
    "nom_ar": "واد الرمان ",
    "commune": "El Achour",
    "commune_ar": "العاشور",
    "lat": "36.742477",
    "lon": "2.994716"
  },
  {
    "nom": "Oued Romane",
    "nom_ar": "واد الرمان ",
    "commune": "El Achour",
    "commune_ar": "العاشور",
    "lat": "36.742552",
    "lon": "2.99492"
  },
  {
    "nom": "Residence Sahraoui",
    "nom_ar": "اقامة صحراوي ",
    "commune": "El Achour",
    "commune_ar": "العاشور",
    "lat": "36.746062",
    "lon": "2.997974"
  },
  {
    "nom": "APC Kouba",
    "nom_ar": "بلدية القبة ",
    "commune": "Kouba",
    "commune_ar": "القبة",
    "lat": "36.73389",
    "lon": "3.086829"
  },
  {
    "nom": "Parc Dounia",
    "nom_ar": "دنيا بارك",
    "commune": "El Achour",
    "commune_ar": "العاشور",
    "lat": "36.742126",
    "lon": "2.973881"
  },
  {
    "nom": "APC Kouba",
    "nom_ar": "بلدية القبة ",
    "commune": "Kouba",
    "commune_ar": "القبة",
    "lat": "36.73402",
    "lon": "3.086723"
  },
  {
    "nom": "Ben Omar",
    "nom_ar": "بن عمر ",
    "commune": "Kouba",
    "commune_ar": "القبة",
    "lat": "36.72635",
    "lon": "3.089371"
  },
  {
    "nom": "Ben Omar",
    "nom_ar": "بن عمر ",
    "commune": "Kouba",
    "commune_ar": "القبة",
    "lat": "36.726353",
    "lon": "3.089759"
  },
  {
    "nom": "Ben Omar",
    "nom_ar": "بن عمر ",
    "commune": "Kouba",
    "commune_ar": "القبة",
    "lat": "36.726771",
    "lon": "3.089317"
  },
  {
    "nom": "Ben Omar",
    "nom_ar": "بن عمر ",
    "commune": "Kouba",
    "commune_ar": "القبة",
    "lat": "36.726948",
    "lon": "3.088696"
  },
  {
    "nom": "Calvaire",
    "nom_ar": "كالفير ",
    "commune": "Kouba",
    "commune_ar": "القبة",
    "lat": "36.737105",
    "lon": "3.091422"
  },
  {
    "nom": "Calvaire",
    "nom_ar": "كالفير ",
    "commune": "Kouba",
    "commune_ar": "القبة",
    "lat": "36.737161",
    "lon": "3.0914"
  },
  {
    "nom": "Cité Copemade",
    "nom_ar": "حي كوبماد ",
    "commune": "Kouba",
    "commune_ar": "القبة",
    "lat": "36.735421",
    "lon": "3.071601"
  },
  {
    "nom": "Cité Copemade",
    "nom_ar": "حي كوبماد ",
    "commune": "Kouba",
    "commune_ar": "القبة",
    "lat": "36.73556",
    "lon": "3.071401"
  },
  {
    "nom": "Cité des Annassers",
    "nom_ar": "حي العناصر ",
    "commune": "Kouba",
    "commune_ar": "القبة",
    "lat": "36.735865",
    "lon": "3.075596"
  },
  {
    "nom": "Cité des Annassers",
    "nom_ar": "حي العناصر ",
    "commune": "Kouba",
    "commune_ar": "القبة",
    "lat": "36.735891",
    "lon": "3.07528"
  },
  {
    "nom": "Diar El Afia",
    "nom_ar": "ديار العافية ",
    "commune": "Kouba",
    "commune_ar": "القبة",
    "lat": "36.735497",
    "lon": "3.06574"
  },
  {
    "nom": "Diar El Afia",
    "nom_ar": "ديار العافية ",
    "commune": "Kouba",
    "commune_ar": "القبة",
    "lat": "36.735556",
    "lon": "3.06567"
  },
  {
    "nom": "El Annasser S.M.M",
    "nom_ar": "محطة متعددة الخدمات العناصر",
    "commune": "Kouba",
    "commune_ar": "القبة",
    "lat": "36.742824",
    "lon": "3.08316"
  },
  {
    "nom": "Freres Abdeslami",
    "nom_ar": "الاخوة عبد السلامي ",
    "commune": "Kouba",
    "commune_ar": "القبة",
    "lat": "36.729274",
    "lon": "3.079804"
  },
  {
    "nom": "Freres Abdeslami",
    "nom_ar": "الاخوة عبد السلامي ",
    "commune": "Kouba",
    "commune_ar": "القبة",
    "lat": "36.729445",
    "lon": "3.079391"
  },
  {
    "nom": "Garidi 1",
    "nom_ar": "قاريدي 1",
    "commune": "Kouba",
    "commune_ar": "القبة",
    "lat": "36.728906",
    "lon": "3.069434"
  },
  {
    "nom": "Garidi 2",
    "nom_ar": "قاريدي 2",
    "commune": "Kouba",
    "commune_ar": "القبة",
    "lat": "36.733339",
    "lon": "3.063236"
  },
  {
    "nom": "Garidi 2",
    "nom_ar": "قاريدي 2",
    "commune": "Kouba",
    "commune_ar": "القبة",
    "lat": "36.733387",
    "lon": "3.062631"
  },
  {
    "nom": "Garidi 2",
    "nom_ar": "قاريدي 2",
    "commune": "Kouba",
    "commune_ar": "القبة",
    "lat": "36.733974",
    "lon": "3.063417"
  },
  {
    "nom": "Hopital Militaire",
    "nom_ar": "المستشفى العسكري ",
    "commune": "Kouba",
    "commune_ar": "القبة",
    "lat": "36.722629",
    "lon": "3.06823"
  },
  {
    "nom": "Hopital Militaire",
    "nom_ar": "المستشفى العسكري ",
    "commune": "Kouba",
    "commune_ar": "القبة",
    "lat": "36.722904",
    "lon": "3.064709"
  },
  {
    "nom": "La Croix",
    "nom_ar": "لاكروا",
    "commune": "Kouba",
    "commune_ar": "القبة",
    "lat": "36.729943",
    "lon": "3.084107"
  },
  {
    "nom": "La Croix",
    "nom_ar": "لاكروا",
    "commune": "Kouba",
    "commune_ar": "القبة",
    "lat": "36.729979",
    "lon": "3.084068"
  },
  {
    "nom": "La Provale 2",
    "nom_ar": "لابروفال 2",
    "commune": "Kouba",
    "commune_ar": "القبة",
    "lat": "36.724503",
    "lon": "3.091048"
  },
  {
    "nom": "Les Oasis",
    "nom_ar": "الواحات (وازيس)",
    "commune": "Kouba",
    "commune_ar": "القبة",
    "lat": "36.739103",
    "lon": "3.08842"
  },
  {
    "nom": "Les Oasis",
    "nom_ar": "الواحات (وازيس)",
    "commune": "Kouba",
    "commune_ar": "القبة",
    "lat": "36.739122",
    "lon": "3.088254"
  },
  {
    "nom": "Oued Kniss",
    "nom_ar": "واد كنيس ",
    "commune": "Kouba",
    "commune_ar": "القبة",
    "lat": "36.741172",
    "lon": "3.081008"
  },
  {
    "nom": "Oued kniss",
    "nom_ar": "واد كنيس ",
    "commune": "Kouba",
    "commune_ar": "القبة",
    "lat": "36.741231",
    "lon": "3.084227"
  },
  {
    "nom": "Oued Kniss",
    "nom_ar": "واد كنيس ",
    "commune": "Kouba",
    "commune_ar": "القبة",
    "lat": "36.741313",
    "lon": "3.081341"
  },
  {
    "nom": "Oued kniss",
    "nom_ar": "واد كنيس ",
    "commune": "Kouba",
    "commune_ar": "القبة",
    "lat": "36.741667",
    "lon": "3.083293"
  },
  {
    "nom": "Stade Ben Haddad (Ben Omar)",
    "nom_ar": "ملعب بن حداد (بن عمر)",
    "commune": "Kouba",
    "commune_ar": "القبة",
    "lat": "36.729136",
    "lon": "3.089521"
  },
  {
    "nom": "Stade Ben Haddad (Ben Omar)",
    "nom_ar": "ملعب بن حداد (بن عمر)",
    "commune": "Kouba",
    "commune_ar": "القبة",
    "lat": "36.729394",
    "lon": "3.089472"
  },
  {
    "nom": "Stade Ben Haddad (Ben Omar)",
    "nom_ar": "ملعب بن حداد (بن عمر)",
    "commune": "Kouba",
    "commune_ar": "القبة",
    "lat": "36.729663",
    "lon": "3.089344"
  },
  {
    "nom": "Station Intermodale de KOUBA",
    "nom_ar": "محطة متعددة الخدمات القبة ",
    "commune": "Kouba",
    "commune_ar": "القبة",
    "lat": "36.730228",
    "lon": "3.073109"
  },
  {
    "nom": "Station Intermodale de KOUBA",
    "nom_ar": "محطة متعددة الخدمات القبة ",
    "commune": "Kouba",
    "commune_ar": "القبة",
    "lat": "36.730244",
    "lon": "3.073061"
  },
  {
    "nom": "Vieux Kouba",
    "nom_ar": "القبة القديمة ",
    "commune": "Kouba",
    "commune_ar": "القبة",
    "lat": "36.729634",
    "lon": "3.075038"
  },
  {
    "nom": "Place des Martyrs",
    "nom_ar": "ساحة الشهداء ",
    "commune": "Casbah",
    "commune_ar": "القصبة",
    "lat": "36.785291",
    "lon": "3.063398"
  },
  {
    "nom": "Bab El Djadid",
    "nom_ar": "باب الجديد ",
    "commune": "Casbah",
    "commune_ar": "القصبة",
    "lat": "36.785655",
    "lon": "3.055953"
  },
  {
    "nom": "Bab El Djadid",
    "nom_ar": "باب الجديد ",
    "commune": "Casbah",
    "commune_ar": "القصبة",
    "lat": "36.785714",
    "lon": "3.055847"
  },
  {
    "nom": "CHU Ali AIT IDIR",
    "nom_ar": "مستشفى علي ايت ايدير ",
    "commune": "Casbah",
    "commune_ar": "القصبة",
    "lat": "36.787009",
    "lon": "3.057941"
  },
  {
    "nom": "CHU Ali AIT IDIR",
    "nom_ar": "مستشفى علي ايت ايدير ",
    "commune": "Casbah",
    "commune_ar": "القصبة",
    "lat": "36.787116",
    "lon": "3.057097"
  },
  {
    "nom": "El Kettar",
    "nom_ar": "القطار ",
    "commune": "Casbah",
    "commune_ar": "القصبة",
    "lat": "36.785282",
    "lon": "3.052789"
  },
  {
    "nom": "El Kettar",
    "nom_ar": "القطار ",
    "commune": "Casbah",
    "commune_ar": "القصبة",
    "lat": "36.785373",
    "lon": "3.05294"
  },
  {
    "nom": "Place des Martyrs",
    "nom_ar": "ساحة الشهداء   ",
    "commune": "Casbah",
    "commune_ar": "القصبة",
    "lat": "36.785488",
    "lon": "3.062753"
  },
  {
    "nom": "Place des Martyrs",
    "nom_ar": "ساحة الشهداء   ",
    "commune": "Casbah",
    "commune_ar": "القصبة",
    "lat": "36.785511",
    "lon": "3.06301"
  },
  {
    "nom": "Place des Martyrs",
    "nom_ar": "ساحة الشهداء   ",
    "commune": "Casbah",
    "commune_ar": "القصبة",
    "lat": "36.786344",
    "lon": "3.063264"
  },
  {
    "nom": "Rue Rachid Khelfallah",
    "nom_ar": "شارع رشيد خلف الله ",
    "commune": "Casbah",
    "commune_ar": "القصبة",
    "lat": "36.78824",
    "lon": "3.056347"
  },
  {
    "nom": "Sidi Abderrahmane",
    "nom_ar": "سيدي عبد الرحمان ",
    "commune": "Casbah",
    "commune_ar": "القصبة",
    "lat": "36.788834",
    "lon": "3.057859"
  },
  {
    "nom": "APC Eucalyptus",
    "nom_ar": "بلدية الكاليتوس ",
    "commune": "Les Eucalyptus",
    "commune_ar": "الكليتوس",
    "lat": "36.669743",
    "lon": "3.143995"
  },
  {
    "nom": "APC Eucalyptus",
    "nom_ar": "بلدية الكاليتوس ",
    "commune": "Les Eucalyptus",
    "commune_ar": "الكليتوس",
    "lat": "36.669944",
    "lon": "3.144058"
  },
  {
    "nom": "Cimetiere Mahieddine",
    "nom_ar": "مقبرة محيي الدين ",
    "commune": "Les Eucalyptus",
    "commune_ar": "الكليتوس",
    "lat": "36.647699",
    "lon": "3.17997"
  },
  {
    "nom": "Cimetiere Mahieddine",
    "nom_ar": "مقبرة محيي الدين ",
    "commune": "Les Eucalyptus",
    "commune_ar": "الكليتوس",
    "lat": "36.647817",
    "lon": "3.180084"
  },
  {
    "nom": "Cité 648 Logts Laaraibia",
    "nom_ar": "حي 648 مسكن لعريبية ",
    "commune": "Les Eucalyptus",
    "commune_ar": "الكليتوس",
    "lat": "36.642108",
    "lon": "3.174816"
  },
  {
    "nom": "Cité 648 Logts Laaraibia",
    "nom_ar": "حي 648 مسكن لعريبية ",
    "commune": "Les Eucalyptus",
    "commune_ar": "الكليتوس",
    "lat": "36.642161",
    "lon": "3.174771"
  },
  {
    "nom": "Cité 668 Logts",
    "nom_ar": "حي 668 مسكن ",
    "commune": "Les Eucalyptus",
    "commune_ar": "الكليتوس",
    "lat": "36.677247",
    "lon": "3.167901"
  },
  {
    "nom": "Cité 668 Logts",
    "nom_ar": "حي 668 مسكن ",
    "commune": "Les Eucalyptus",
    "commune_ar": "الكليتوس",
    "lat": "36.677485",
    "lon": "3.167671"
  },
  {
    "nom": "Cité AADL",
    "nom_ar": "حي عدل",
    "commune": "Les Eucalyptus",
    "commune_ar": "الكليتوس",
    "lat": "36.660599",
    "lon": "3.145793"
  },
  {
    "nom": "Cité AADL",
    "nom_ar": "حي عدل",
    "commune": "Les Eucalyptus",
    "commune_ar": "الكليتوس",
    "lat": "36.660969",
    "lon": "3.145815"
  },
  {
    "nom": "Cité Ed-Dalia",
    "nom_ar": "حي الدالية ",
    "commune": "Les Eucalyptus",
    "commune_ar": "الكليتوس",
    "lat": "36.668796",
    "lon": "3.171361"
  },
  {
    "nom": "Cité Ed-Dalia",
    "nom_ar": "حي الدالية ",
    "commune": "Les Eucalyptus",
    "commune_ar": "الكليتوس",
    "lat": "36.668831",
    "lon": "3.171038"
  },
  {
    "nom": "Cité Ed-Dalia 1",
    "nom_ar": "حي الدالية 1",
    "commune": "Les Eucalyptus",
    "commune_ar": "الكليتوس",
    "lat": "36.670588",
    "lon": "3.170867"
  },
  {
    "nom": "Cité Pierre",
    "nom_ar": "حي بيار ",
    "commune": "Les Eucalyptus",
    "commune_ar": "الكليتوس",
    "lat": "36.650318",
    "lon": "3.181016"
  },
  {
    "nom": "Cité Emir Abdelkader",
    "nom_ar": "حي الأمير عبد القادر ",
    "commune": "Les Eucalyptus",
    "commune_ar": "الكليتوس",
    "lat": "36.674602",
    "lon": "3.170794"
  },
  {
    "nom": "Cité Pierre",
    "nom_ar": "حي بيار ",
    "commune": "Les Eucalyptus",
    "commune_ar": "الكليتوس",
    "lat": "36.650534",
    "lon": "3.181029"
  },
  {
    "nom": "Cité Vasely",
    "nom_ar": "حي فازلي ",
    "commune": "Les Eucalyptus",
    "commune_ar": "الكليتوس",
    "lat": "36.663915",
    "lon": "3.182494"
  },
  {
    "nom": "Cité Vasely",
    "nom_ar": "حي فازلي ",
    "commune": "Les Eucalyptus",
    "commune_ar": "الكليتوس",
    "lat": "36.664001",
    "lon": "3.182313"
  },
  {
    "nom": "Ecole Emir Abdelkader",
    "nom_ar": "مدرسة الأمير عبد القادر ",
    "commune": "Les Eucalyptus",
    "commune_ar": "الكليتوس",
    "lat": "36.675174",
    "lon": "3.170233"
  },
  {
    "nom": "Ecole Salah Mugafi",
    "nom_ar": "مدرسة صالح مقافي ",
    "commune": "Les Eucalyptus",
    "commune_ar": "الكليتوس",
    "lat": "36.656191",
    "lon": "3.183316"
  },
  {
    "nom": "Ecole Salah Mugafi",
    "nom_ar": "مدرسة صالح مقافي ",
    "commune": "Les Eucalyptus",
    "commune_ar": "الكليتوس",
    "lat": "36.656221",
    "lon": "3.183264"
  },
  {
    "nom": "Eucalyptus",
    "nom_ar": "الكاليتوس ",
    "commune": "Les Eucalyptus",
    "commune_ar": "الكليتوس",
    "lat": "36.656438",
    "lon": "3.151012"
  },
  {
    "nom": "Eucalyptus",
    "nom_ar": "الكاليتوس ",
    "commune": "Les Eucalyptus",
    "commune_ar": "الكليتوس",
    "lat": "36.656946",
    "lon": "3.151554"
  },
  {
    "nom": "Hotel Solux",
    "nom_ar": "فندق سوليكس ",
    "commune": "Les Eucalyptus",
    "commune_ar": "الكليتوس",
    "lat": "36.681631",
    "lon": "3.141679"
  },
  {
    "nom": "Hotel Solux",
    "nom_ar": "فندق سوليكس ",
    "commune": "Les Eucalyptus",
    "commune_ar": "الكليتوس",
    "lat": "36.682145",
    "lon": "3.141666"
  },
  {
    "nom": "Laaraibia",
    "nom_ar": "لعريبية ",
    "commune": "Les Eucalyptus",
    "commune_ar": "الكليتوس",
    "lat": "36.642035",
    "lon": "3.177431"
  },
  {
    "nom": "Laaraibia",
    "nom_ar": "لعريبية ",
    "commune": "Les Eucalyptus",
    "commune_ar": "الكليتوس",
    "lat": "36.642147",
    "lon": "3.177541"
  },
  {
    "nom": "Le Foyer",
    "nom_ar": "لفوايي ",
    "commune": "Les Eucalyptus",
    "commune_ar": "الكليتوس",
    "lat": "36.663444",
    "lon": "3.145286"
  },
  {
    "nom": "Le Foyer",
    "nom_ar": "لفوايي ",
    "commune": "Les Eucalyptus",
    "commune_ar": "الكليتوس",
    "lat": "36.663715",
    "lon": "3.145137"
  },
  {
    "nom": "Les 4 Chemins",
    "nom_ar": "مفترق الطرق",
    "commune": "Les Eucalyptus",
    "commune_ar": "الكليتوس",
    "lat": "36.654474",
    "lon": "3.146937"
  },
  {
    "nom": "Lotissement",
    "nom_ar": "لوتسمون ",
    "commune": "Les Eucalyptus",
    "commune_ar": "الكليتوس",
    "lat": "36.665876",
    "lon": "3.144682"
  },
  {
    "nom": "Lycée Rmadnia",
    "nom_ar": "ثانوية رماضنية ",
    "commune": "Les Eucalyptus",
    "commune_ar": "الكليتوس",
    "lat": "36.667134",
    "lon": "3.179011"
  },
  {
    "nom": "Lotissement",
    "nom_ar": "لوتسمون ",
    "commune": "Les Eucalyptus",
    "commune_ar": "الكليتوس",
    "lat": "36.665934",
    "lon": "3.144781"
  },
  {
    "nom": "Lycée Rmadnia",
    "nom_ar": "ثانوية رماضنية ",
    "commune": "Les Eucalyptus",
    "commune_ar": "الكليتوس",
    "lat": "36.666914",
    "lon": "3.179161"
  },
  {
    "nom": "Marché  de gros",
    "nom_ar": "سوق الجملة ",
    "commune": "Les Eucalyptus",
    "commune_ar": "الكليتوس",
    "lat": "36.689103",
    "lon": "3.14022"
  },
  {
    "nom": "Marché  de gros",
    "nom_ar": "سوق الجملة ",
    "commune": "Les Eucalyptus",
    "commune_ar": "الكليتوس",
    "lat": "36.690189",
    "lon": "3.140174"
  },
  {
    "nom": "Marché de gros",
    "nom_ar": "سوق الجملة ",
    "commune": "Les Eucalyptus",
    "commune_ar": "الكليتوس",
    "lat": "36.689671",
    "lon": "3.140866"
  },
  {
    "nom": "Mosquee Moussaab Ibn Oumair",
    "nom_ar": "مسجد مصعب بن عمير ",
    "commune": "Les Eucalyptus",
    "commune_ar": "الكليتوس",
    "lat": "36.68144",
    "lon": "3.161739"
  },
  {
    "nom": "Mosquee Moussaab Ibn Oumair",
    "nom_ar": "مسجد مصعب بن عمير ",
    "commune": "Les Eucalyptus",
    "commune_ar": "الكليتوس",
    "lat": "36.681461",
    "lon": "3.161806"
  },
  {
    "nom": "Mosquee Prophète Ismail",
    "nom_ar": "مسجد النبي اسماعيل ",
    "commune": "Les Eucalyptus",
    "commune_ar": "الكليتوس",
    "lat": "36.66252",
    "lon": "3.184028"
  },
  {
    "nom": "Mosquee Prophète Ismail",
    "nom_ar": "مسجد النبي اسماعيل ",
    "commune": "Les Eucalyptus",
    "commune_ar": "الكليتوس",
    "lat": "36.662581",
    "lon": "3.183879"
  },
  {
    "nom": "Salle Omnisports Chateau Rouge",
    "nom_ar": "قاعة متعددة الرياضات القصر الأحمر ",
    "commune": "Les Eucalyptus",
    "commune_ar": "الكليتوس",
    "lat": "36.673096",
    "lon": "3.143311"
  },
  {
    "nom": "Salle Omnisports Eucalyptus",
    "nom_ar": "قاعة متعددة الرياضات الكاليتوس ",
    "commune": "Les Eucalyptus",
    "commune_ar": "الكليتوس",
    "lat": "36.673365",
    "lon": "3.143365"
  },
  {
    "nom": "Cimetiere",
    "nom_ar": "المقبرة ",
    "commune": "El Madania",
    "commune_ar": "المدنية",
    "lat": "36.747857",
    "lon": "3.059106"
  },
  {
    "nom": "Cité Comfort",
    "nom_ar": "حي كونفور",
    "commune": "El Madania",
    "commune_ar": "المدنية",
    "lat": "36.746617",
    "lon": "3.064333"
  },
  {
    "nom": "Cité Comfort",
    "nom_ar": "حي كونفور",
    "commune": "El Madania",
    "commune_ar": "المدنية",
    "lat": "36.746713",
    "lon": "3.064297"
  },
  {
    "nom": "Diar El Mahçoul (Passerelle)",
    "nom_ar": "ديار المحصول ",
    "commune": "El Madania",
    "commune_ar": "المدنية",
    "lat": "36.745509",
    "lon": "3.066465"
  },
  {
    "nom": "Diar El Mahçoul (Passerelle)",
    "nom_ar": "ديار المحصول",
    "commune": "El Madania",
    "commune_ar": "المدنية",
    "lat": "36.745582",
    "lon": "3.066595"
  },
  {
    "nom": "Diar Saada",
    "nom_ar": "ديار السعادة ",
    "commune": "El Madania",
    "commune_ar": "المدنية",
    "lat": "36.747468",
    "lon": "3.061"
  },
  {
    "nom": "Diar Saada",
    "nom_ar": "ديار السعادة ",
    "commune": "El Madania",
    "commune_ar": "المدنية",
    "lat": "36.747485",
    "lon": "3.061437"
  },
  {
    "nom": "El Madania",
    "nom_ar": "المدنية ",
    "commune": "El Madania",
    "commune_ar": "المدنية",
    "lat": "36.742146",
    "lon": "3.065238"
  },
  {
    "nom": "El Madania",
    "nom_ar": "المدنية ",
    "commune": "El Madania",
    "commune_ar": "المدنية",
    "lat": "36.742158",
    "lon": "3.065401"
  },
  {
    "nom": "Freres Madani",
    "nom_ar": "الاخوة مداني ",
    "commune": "El Madania",
    "commune_ar": "المدنية",
    "lat": "36.738532",
    "lon": "3.068798"
  },
  {
    "nom": "Freres Madani",
    "nom_ar": "الاخوة مداني ",
    "commune": "El Madania",
    "commune_ar": "المدنية",
    "lat": "36.73854",
    "lon": "3.070638"
  },
  {
    "nom": "Les Sources",
    "nom_ar": "الينابيع ",
    "commune": "El Madania",
    "commune_ar": "المدنية",
    "lat": "36.738375",
    "lon": "3.064166"
  },
  {
    "nom": "Les Sources",
    "nom_ar": "الينابيع ",
    "commune": "El Madania",
    "commune_ar": "المدنية",
    "lat": "36.738389",
    "lon": "3.064326"
  },
  {
    "nom": "Memorial du Martyr",
    "nom_ar": "مقام الشهيد ",
    "commune": "El Madania",
    "commune_ar": "المدنية",
    "lat": "36.74506",
    "lon": "3.06859"
  },
  {
    "nom": "Memorial du Martyr",
    "nom_ar": "مقام الشهيد ",
    "commune": "El Madania",
    "commune_ar": "المدنية",
    "lat": "36.745145",
    "lon": "3.068579"
  },
  {
    "nom": "Panorama",
    "nom_ar": "بانوراما ",
    "commune": "El Madania",
    "commune_ar": "المدنية",
    "lat": "36.750458",
    "lon": "3.057136"
  },
  {
    "nom": "Panorama",
    "nom_ar": "بانوراما ",
    "commune": "El Madania",
    "commune_ar": "المدنية",
    "lat": "36.750469",
    "lon": "3.057011"
  },
  {
    "nom": "Riadh El Feth",
    "nom_ar": "رياض الفتح ",
    "commune": "El Madania",
    "commune_ar": "المدنية",
    "lat": "36.739655",
    "lon": "3.075471"
  },
  {
    "nom": "Riadh El Feth",
    "nom_ar": "رياض الفتح ",
    "commune": "El Madania",
    "commune_ar": "المدنية",
    "lat": "36.739673",
    "lon": "3.075408"
  },
  {
    "nom": "Avenue Pekin",
    "nom_ar": "نهج بيكين ",
    "commune": "El Mouradia",
    "commune_ar": "المرادية",
    "lat": "36.750209",
    "lon": "3.049604"
  },
  {
    "nom": "El Bitoum",
    "nom_ar": "البيتوم ",
    "commune": "El Mouradia",
    "commune_ar": "المرادية",
    "lat": "36.752248",
    "lon": "3.04106"
  },
  {
    "nom": "El Bitoum",
    "nom_ar": "البيتوم ",
    "commune": "El Mouradia",
    "commune_ar": "المرادية",
    "lat": "36.753858",
    "lon": "3.043334"
  },
  {
    "nom": "El Mouradia",
    "nom_ar": "المرادية ",
    "commune": "El Mouradia",
    "commune_ar": "المرادية",
    "lat": "36.747665",
    "lon": "3.050759"
  },
  {
    "nom": "Lycée Descarte",
    "nom_ar": "ثانوية ديكارت ",
    "commune": "El Mouradia",
    "commune_ar": "المرادية",
    "lat": "36.749189",
    "lon": "3.050797"
  },
  {
    "nom": "Mohammedi",
    "nom_ar": "محمدي ",
    "commune": "El Mouradia",
    "commune_ar": "المرادية",
    "lat": "36.751245",
    "lon": "3.041789"
  },
  {
    "nom": "Mohammedi",
    "nom_ar": "محمدي ",
    "commune": "El Mouradia",
    "commune_ar": "المرادية",
    "lat": "36.751369",
    "lon": "3.041498"
  },
  {
    "nom": "Polyclinique Guerni Amar",
    "nom_ar": "عيادة قرني عمار ",
    "commune": "El Mouradia",
    "commune_ar": "المرادية",
    "lat": "36.747943",
    "lon": "3.054386"
  },
  {
    "nom": "Souidani Boudjemaa",
    "nom_ar": "سويداني بو جمعة ",
    "commune": "El Mouradia",
    "commune_ar": "المرادية",
    "lat": "36.75249",
    "lon": "3.048739"
  },
  {
    "nom": "Souidani Boudjemaa",
    "nom_ar": "سويداني بو جمعة ",
    "commune": "El Mouradia",
    "commune_ar": "المرادية",
    "lat": "36.752614",
    "lon": "3.047847"
  },
  {
    "nom": "Caroubier",
    "nom_ar": "خروبة ",
    "commune": "El Magharia",
    "commune_ar": "المقرية",
    "lat": "36.734685",
    "lon": "3.11988"
  },
  {
    "nom": "Cité Maya",
    "nom_ar": "حي مايا ",
    "commune": "El Magharia",
    "commune_ar": "المقرية",
    "lat": "36.730406",
    "lon": "3.103202"
  },
  {
    "nom": "Cité Maya",
    "nom_ar": "حي مايا ",
    "commune": "El Magharia",
    "commune_ar": "المقرية",
    "lat": "36.731553",
    "lon": "3.104055"
  },
  {
    "nom": "Hai El Badr",
    "nom_ar": "حي البدر ",
    "commune": "El Magharia",
    "commune_ar": "المقرية",
    "lat": "36.724033",
    "lon": "3.101774"
  },
  {
    "nom": "Hai El Badr",
    "nom_ar": "حي البدر ",
    "commune": "El Magharia",
    "commune_ar": "المقرية",
    "lat": "36.724057",
    "lon": "3.102025"
  },
  {
    "nom": "Hai El Badr",
    "nom_ar": "حي البدر ",
    "commune": "El Magharia",
    "commune_ar": "المقرية",
    "lat": "36.724457",
    "lon": "3.101309"
  },
  {
    "nom": "Parnet",
    "nom_ar": "بارني ",
    "commune": "El Magharia",
    "commune_ar": "المقرية",
    "lat": "36.733102",
    "lon": "3.103475"
  },
  {
    "nom": "Parnet",
    "nom_ar": "بارني ",
    "commune": "El Magharia",
    "commune_ar": "المقرية",
    "lat": "36.733335",
    "lon": "3.104094"
  },
  {
    "nom": "Ain El Kahla",
    "nom_ar": "عين الكحلة ",
    "commune": "Hraoua",
    "commune_ar": "الهراوة",
    "lat": "36.765451",
    "lon": "3.328118"
  },
  {
    "nom": "Ain El Kahla",
    "nom_ar": "عين الكحلة ",
    "commune": "Hraoua",
    "commune_ar": "الهراوة",
    "lat": "36.765463",
    "lon": "3.327951"
  },
  {
    "nom": "Braidia",
    "nom_ar": "برايدية ",
    "commune": "Hraoua",
    "commune_ar": "الهراوة",
    "lat": "36.757564",
    "lon": "3.327719"
  },
  {
    "nom": "Braidia",
    "nom_ar": "برايدية ",
    "commune": "Hraoua",
    "commune_ar": "الهراوة",
    "lat": "36.757657",
    "lon": "3.32793"
  },
  {
    "nom": "CFPA Ali Khoudja",
    "nom_ar": "  مركز التكوين المهني علي خوجة",
    "commune": "Hraoua",
    "commune_ar": "الهراوة",
    "lat": "36.767452",
    "lon": "3.322752"
  },
  {
    "nom": "Domaine Si Boualem",
    "nom_ar": "دومان سي بوعلام ",
    "commune": "Hraoua",
    "commune_ar": "الهراوة",
    "lat": "36.771016",
    "lon": "3.288007"
  },
  {
    "nom": "Domaine Si Boualem 2",
    "nom_ar": "دومان سي بوعلام 2",
    "commune": "Hraoua",
    "commune_ar": "الهراوة",
    "lat": "36.770858",
    "lon": "3.288097"
  },
  {
    "nom": "Ecole Houari Boumediene",
    "nom_ar": "مدرسة هواري بومدين ",
    "commune": "Hraoua",
    "commune_ar": "الهراوة",
    "lat": "36.781503",
    "lon": "3.288824"
  },
  {
    "nom": "El Karia",
    "nom_ar": "القرية ",
    "commune": "Hraoua",
    "commune_ar": "الهراوة",
    "lat": "36.776344",
    "lon": "3.288415"
  },
  {
    "nom": "Haouch Rmel",
    "nom_ar": "حوش الرمل ",
    "commune": "Hraoua",
    "commune_ar": "الهراوة",
    "lat": "36.759976",
    "lon": "3.287464"
  },
  {
    "nom": "Haouch Rmel",
    "nom_ar": "حوش الرمل ",
    "commune": "Hraoua",
    "commune_ar": "الهراوة",
    "lat": "36.760719",
    "lon": "3.287395"
  },
  {
    "nom": "Hraoua",
    "nom_ar": "هراوة ",
    "commune": "Hraoua",
    "commune_ar": "الهراوة",
    "lat": "36.776699",
    "lon": "3.305414"
  },
  {
    "nom": "Hraoua",
    "nom_ar": "هراوة ",
    "commune": "Hraoua",
    "commune_ar": "الهراوة",
    "lat": "36.777047",
    "lon": "3.305325"
  },
  {
    "nom": "Maamria",
    "nom_ar": "معامرية ",
    "commune": "Hraoua",
    "commune_ar": "الهراوة",
    "lat": "36.76444",
    "lon": "3.300257"
  },
  {
    "nom": "Maamria",
    "nom_ar": "معامرية ",
    "commune": "Hraoua",
    "commune_ar": "الهراوة",
    "lat": "36.76445",
    "lon": "3.299982"
  },
  {
    "nom": "Ouled Larbi",
    "nom_ar": "أولاد العربي ",
    "commune": "Hraoua",
    "commune_ar": "الهراوة",
    "lat": "36.757595",
    "lon": "3.314404"
  },
  {
    "nom": "Ouled Larbi",
    "nom_ar": "أولاد العربي ",
    "commune": "Hraoua",
    "commune_ar": "الهراوة",
    "lat": "36.757704",
    "lon": "3.314837"
  },
  {
    "nom": "Stop",
    "nom_ar": "قف ",
    "commune": "Hraoua",
    "commune_ar": "الهراوة",
    "lat": "36.769665",
    "lon": "3.288742"
  },
  {
    "nom": "Cité Ali BOUHADJA",
    "nom_ar": "حي علي بوحجة ",
    "commune": "Ouled Chebel",
    "commune_ar": "أولاد شبل",
    "lat": "36.635071",
    "lon": "3.005527"
  },
  {
    "nom": "Cité Ali BOUHADJA",
    "nom_ar": "حي علي بوحجة ",
    "commune": "Ouled Chebel",
    "commune_ar": "أولاد شبل",
    "lat": "36.635142",
    "lon": "3.005636"
  },
  {
    "nom": "Cité Chaibia",
    "nom_ar": "حي شعايبية ",
    "commune": "Ouled Chebel",
    "commune_ar": "أولاد شبل",
    "lat": "36.623141",
    "lon": "2.988573"
  },
  {
    "nom": "Cité Chaibia",
    "nom_ar": "حي شعايبية ",
    "commune": "Ouled Chebel",
    "commune_ar": "أولاد شبل",
    "lat": "36.623421",
    "lon": "2.988576"
  },
  {
    "nom": "Gare du Train Birtouta",
    "nom_ar": "محطة القطار بئر توتة  ",
    "commune": "Ouled Chebel",
    "commune_ar": "أولاد شبل",
    "lat": "36.630607",
    "lon": "3.008995"
  },
  {
    "nom": "Gare du Train Birtouta",
    "nom_ar": "محطة القطار بئر توتة  ",
    "commune": "Ouled Chebel",
    "commune_ar": "أولاد شبل",
    "lat": "36.630886",
    "lon": "3.009124"
  },
  {
    "nom": "Hai Hamidou 2",
    "nom_ar": "حي حميدو 2 ",
    "commune": "Ouled Chebel",
    "commune_ar": "أولاد شبل",
    "lat": "36.609786",
    "lon": "2.996202"
  },
  {
    "nom": "Hai Hamidou 2",
    "nom_ar": "حي حميدو 2 ",
    "commune": "Ouled Chebel",
    "commune_ar": "أولاد شبل",
    "lat": "36.609825",
    "lon": "2.99615"
  },
  {
    "nom": "Hai M hamdia",
    "nom_ar": "حي محامدية ",
    "commune": "Ouled Chebel",
    "commune_ar": "أولاد شبل",
    "lat": "36.617808",
    "lon": "3.004011"
  },
  {
    "nom": "Hai M hamdia",
    "nom_ar": "حي محامدية ",
    "commune": "Ouled Chebel",
    "commune_ar": "أولاد شبل",
    "lat": "36.617907",
    "lon": "3.004036"
  },
  {
    "nom": "Intersection  Cité Ali BOUHADJA",
    "nom_ar": "مفترق الطرق حي علي بوحجة ",
    "commune": "Ouled Chebel",
    "commune_ar": "أولاد شبل",
    "lat": "36.623738",
    "lon": "2.991379"
  },
  {
    "nom": "Intersection  Cité Ali BOUHADJA",
    "nom_ar": "مفترق الطرق حي علي بوحجة ",
    "commune": "Ouled Chebel",
    "commune_ar": "أولاد شبل",
    "lat": "36.624089",
    "lon": "2.990743"
  },
  {
    "nom": "Intersection Chaibia",
    "nom_ar": "مفترق الطرق شعايبية ",
    "commune": "Ouled Chebel",
    "commune_ar": "أولاد شبل",
    "lat": "36.624622",
    "lon": "3.002117"
  },
  {
    "nom": "Intersection Chaibia",
    "nom_ar": "مفترق الطرق شعايبية ",
    "commune": "Ouled Chebel",
    "commune_ar": "أولاد شبل",
    "lat": "36.624725",
    "lon": "3.002217"
  },
  {
    "nom": "Intersection El Hadjra",
    "nom_ar": "مفترق الطرق الحجرة ",
    "commune": "Ouled Chebel",
    "commune_ar": "أولاد شبل",
    "lat": "36.603269",
    "lon": "2.996784"
  },
  {
    "nom": "Intersection El Hadjra",
    "nom_ar": "مفترق الطرق الحجرة ",
    "commune": "Ouled Chebel",
    "commune_ar": "أولاد شبل",
    "lat": "36.603426",
    "lon": "2.996683"
  },
  {
    "nom": "Koufi",
    "nom_ar": "كوفي ",
    "commune": "Ouled Chebel",
    "commune_ar": "أولاد شبل",
    "lat": "36.601083",
    "lon": "3.000191"
  },
  {
    "nom": "Koufi",
    "nom_ar": "كوفي ",
    "commune": "Ouled Chebel",
    "commune_ar": "أولاد شبل",
    "lat": "36.601138",
    "lon": "3.000202"
  },
  {
    "nom": "Lycée Chaibia",
    "nom_ar": "ثانوية شعايبية ",
    "commune": "Ouled Chebel",
    "commune_ar": "أولاد شبل",
    "lat": "36.626327",
    "lon": "2.991126"
  },
  {
    "nom": "Lycée Chaibia",
    "nom_ar": "ثانوية شعايبية ",
    "commune": "Ouled Chebel",
    "commune_ar": "أولاد شبل",
    "lat": "36.626524",
    "lon": "2.991171"
  },
  {
    "nom": "Mosquee Quoba",
    "nom_ar": "مسجد قباء ",
    "commune": "Ouled Chebel",
    "commune_ar": "أولاد شبل",
    "lat": "36.61479",
    "lon": "3.000495"
  },
  {
    "nom": "Mosquee Quoba",
    "nom_ar": "مسجد قباء ",
    "commune": "Ouled Chebel",
    "commune_ar": "أولاد شبل",
    "lat": "36.614842",
    "lon": "3.000494"
  },
  {
    "nom": "Ouled Chbel",
    "nom_ar": "أولاد الشبل ",
    "commune": "Ouled Chebel",
    "commune_ar": "أولاد شبل",
    "lat": "36.595709",
    "lon": "2.994487"
  },
  {
    "nom": "Ouled Chbel",
    "nom_ar": "أولاد الشبل ",
    "commune": "Ouled Chebel",
    "commune_ar": "أولاد شبل",
    "lat": "36.595712",
    "lon": "2.994569"
  },
  {
    "nom": "Quartier Hamidou 1",
    "nom_ar": "حي حميدو 1",
    "commune": "Ouled Chebel",
    "commune_ar": "أولاد شبل",
    "lat": "36.612729",
    "lon": "2.997202"
  },
  {
    "nom": "Quartier Hamidou 1",
    "nom_ar": "حي حميدو 1",
    "commune": "Ouled Chebel",
    "commune_ar": "أولاد شبل",
    "lat": "36.613008",
    "lon": "2.997316"
  },
  {
    "nom": "APC Ouled Fayet",
    "nom_ar": "بلدية أولاد فايت ",
    "commune": "Ouled Fayet",
    "commune_ar": "أولاد فايت",
    "lat": "36.734493",
    "lon": "2.949958"
  },
  {
    "nom": "CC3",
    "nom_ar": "سيسي 3",
    "commune": "Ouled Fayet",
    "commune_ar": "أولاد فايت",
    "lat": "36.738906",
    "lon": "2.950746"
  },
  {
    "nom": "CC3",
    "nom_ar": "سيسي 3",
    "commune": "Ouled Fayet",
    "commune_ar": "أولاد فايت",
    "lat": "36.739216",
    "lon": "2.950612"
  },
  {
    "nom": "Cité Abderahmane Djadi",
    "nom_ar": "حي عبد الرحمان جادي ",
    "commune": "Ouled Fayet",
    "commune_ar": "أولاد فايت",
    "lat": "36.720396",
    "lon": "2.948251"
  },
  {
    "nom": "Cité Abderahmane Djadi",
    "nom_ar": "حي عبد الرحمان جادي ",
    "commune": "Ouled Fayet",
    "commune_ar": "أولاد فايت",
    "lat": "36.720399",
    "lon": "2.948331"
  },
  {
    "nom": "Cité Souidani Boudjemaa",
    "nom_ar": "حي سويداني بوجمعة ",
    "commune": "Ouled Fayet",
    "commune_ar": "أولاد فايت",
    "lat": "36.721571",
    "lon": "2.91566"
  },
  {
    "nom": "Cité Souidani Boudjemaa",
    "nom_ar": "حي سويداني بوجمعة ",
    "commune": "Ouled Fayet",
    "commune_ar": "أولاد فايت",
    "lat": "36.721657",
    "lon": "2.915614"
  },
  {
    "nom": "Cités Vertes",
    "nom_ar": "الأحياء الخضراء ",
    "commune": "Ouled Fayet",
    "commune_ar": "أولاد فايت",
    "lat": "36.713722",
    "lon": "2.951717"
  },
  {
    "nom": "Cités Vertes",
    "nom_ar": "الأحياء الخضراء ",
    "commune": "Ouled Fayet",
    "commune_ar": "أولاد فايت",
    "lat": "36.713836",
    "lon": "2.951721"
  },
  {
    "nom": "ENAGEO",
    "nom_ar": "المؤسسة الوطنية للجيوفيزياء",
    "commune": "Ouled Fayet",
    "commune_ar": "أولاد فايت",
    "lat": "36.736847",
    "lon": "2.949503"
  },
  {
    "nom": "ENAGEO",
    "nom_ar": "المؤسسة الوطنية للجيوفيزياء",
    "commune": "Ouled Fayet",
    "commune_ar": "أولاد فايت",
    "lat": "36.737039",
    "lon": "2.949714"
  },
  {
    "nom": "Entree Bouchaoui",
    "nom_ar": "مدخل بوشاوي ",
    "commune": "Ouled Fayet",
    "commune_ar": "أولاد فايت",
    "lat": "36.737239",
    "lon": "2.91481"
  },
  {
    "nom": "Entree Ouled Fayet",
    "nom_ar": "مدخل أولاد فايت ",
    "commune": "Ouled Fayet",
    "commune_ar": "أولاد فايت",
    "lat": "36.730521",
    "lon": "2.958753"
  },
  {
    "nom": "Haouch Lyes",
    "nom_ar": "حوش الياس ",
    "commune": "Ouled Fayet",
    "commune_ar": "أولاد فايت",
    "lat": "36.725368",
    "lon": "2.919098"
  },
  {
    "nom": "Hotel Le Beau Fayet",
    "nom_ar": "فندق لبو فايت ",
    "commune": "Ouled Fayet",
    "commune_ar": "أولاد فايت",
    "lat": "36.732708",
    "lon": "2.923741"
  },
  {
    "nom": "Hotel Le Beau Fayet",
    "nom_ar": "فندق لبو فايت ",
    "commune": "Ouled Fayet",
    "commune_ar": "أولاد فايت",
    "lat": "36.732852",
    "lon": "2.923706"
  },
  {
    "nom": "Houch Lyes",
    "nom_ar": "حوش الياس   ",
    "commune": "Ouled Fayet",
    "commune_ar": "أولاد فايت",
    "lat": "36.725103",
    "lon": "2.918961"
  },
  {
    "nom": "L Institut",
    "nom_ar": "المعهد ",
    "commune": "Ouled Fayet",
    "commune_ar": "أولاد فايت",
    "lat": "36.731198",
    "lon": "2.951652"
  },
  {
    "nom": "L Institut",
    "nom_ar": "المعهد ",
    "commune": "Ouled Fayet",
    "commune_ar": "أولاد فايت",
    "lat": "36.730832",
    "lon": "2.952545"
  },
  {
    "nom": "Lycée Colonel Lotfi",
    "nom_ar": "ثانوية العقيد لطفي ",
    "commune": "Ouled Fayet",
    "commune_ar": "أولاد فايت",
    "lat": "36.735172",
    "lon": "2.943902"
  },
  {
    "nom": "Lycée Colonel Lotfi",
    "nom_ar": "ثانوية العقيد لطفي ",
    "commune": "Ouled Fayet",
    "commune_ar": "أولاد فايت",
    "lat": "36.735244",
    "lon": "2.943564"
  },
  {
    "nom": "Opera d Alger",
    "nom_ar": "أوبرا الجزائر ",
    "commune": "Ouled Fayet",
    "commune_ar": "أولاد فايت",
    "lat": "36.733944",
    "lon": "2.933536"
  },
  {
    "nom": "Opera d Alger",
    "nom_ar": "أوبرا الجزائر ",
    "commune": "Ouled Fayet",
    "commune_ar": "أولاد فايت",
    "lat": "36.733965",
    "lon": "2.933997"
  },
  {
    "nom": "Pharmalliance",
    "nom_ar": "فارماليونس ",
    "commune": "Ouled Fayet",
    "commune_ar": "أولاد فايت",
    "lat": "36.732301",
    "lon": "2.963344"
  },
  {
    "nom": "Plateau",
    "nom_ar": "الهضبة ",
    "commune": "Ouled Fayet",
    "commune_ar": "أولاد فايت",
    "lat": "36.717188",
    "lon": "2.945732"
  },
  {
    "nom": "Plateau",
    "nom_ar": "الهضبة ",
    "commune": "Ouled Fayet",
    "commune_ar": "أولاد فايت",
    "lat": "36.717235",
    "lon": "2.945833"
  },
  {
    "nom": "Residence Universitaire 3",
    "nom_ar": "الاقامة الجامعية 3",
    "commune": "Ouled Fayet",
    "commune_ar": "أولاد فايت",
    "lat": "36.728839",
    "lon": "2.954462"
  },
  {
    "nom": "Residence Universitaire 3",
    "nom_ar": "الاقامة الجامعية 3",
    "commune": "Ouled Fayet",
    "commune_ar": "أولاد فايت",
    "lat": "36.728908",
    "lon": "2.955082"
  },
  {
    "nom": "Residence Universitaire 3",
    "nom_ar": "الاقامة الجامعية 3",
    "commune": "Ouled Fayet",
    "commune_ar": "أولاد فايت",
    "lat": "36.728925",
    "lon": "2.955273"
  },
  {
    "nom": "Residence Universitaire 3",
    "nom_ar": "الاقامة الجامعية 3",
    "commune": "Ouled Fayet",
    "commune_ar": "أولاد فايت",
    "lat": "36.72895",
    "lon": "2.954327"
  },
  {
    "nom": "Sortie Bouchaoui",
    "nom_ar": "مخرج بوشاوي ",
    "commune": "Ouled Fayet",
    "commune_ar": "أولاد فايت",
    "lat": "36.736435",
    "lon": "2.914948"
  },
  {
    "nom": "Sortie Ouled Fayet",
    "nom_ar": "مخرج أولاد فايت ",
    "commune": "Ouled Fayet",
    "commune_ar": "أولاد فايت",
    "lat": "36.730461",
    "lon": "2.958974"
  },
  {
    "nom": "Bab Ezzouar",
    "nom_ar": "باب الزوار ",
    "commune": "Bab Ezzouar",
    "commune_ar": "باب الزوار",
    "lat": "36.725995",
    "lon": "3.184152"
  },
  {
    "nom": "Bab Ezzouar",
    "nom_ar": "باب الزوار ",
    "commune": "Bab Ezzouar",
    "commune_ar": "باب الزوار",
    "lat": "36.726097",
    "lon": "3.184328"
  },
  {
    "nom": "Fital",
    "nom_ar": "فيتال ",
    "commune": "Bab Ezzouar",
    "commune_ar": "باب الزوار",
    "lat": "36.724481",
    "lon": "3.169318"
  },
  {
    "nom": "Les Hotels",
    "nom_ar": "الفنادق ",
    "commune": "Bab Ezzouar",
    "commune_ar": "باب الزوار",
    "lat": "36.715185",
    "lon": "3.197921"
  },
  {
    "nom": "Les Hotels",
    "nom_ar": "الفنادق ",
    "commune": "Bab Ezzouar",
    "commune_ar": "باب الزوار",
    "lat": "36.715218",
    "lon": "3.198027"
  },
  {
    "nom": "Rabia Tahar",
    "nom_ar": "رابية طاهر ",
    "commune": "Bab Ezzouar",
    "commune_ar": "باب الزوار",
    "lat": "36.725229",
    "lon": "3.177275"
  },
  {
    "nom": "Rabia Tahar",
    "nom_ar": "رابية طاهر ",
    "commune": "Bab Ezzouar",
    "commune_ar": "باب الزوار",
    "lat": "36.725232",
    "lon": "3.176793"
  },
  {
    "nom": "Rabia Tahar",
    "nom_ar": "رابية طاهر ",
    "commune": "Bab Ezzouar",
    "commune_ar": "باب الزوار",
    "lat": "36.725508",
    "lon": "3.177419"
  },
  {
    "nom": "Soumam",
    "nom_ar": "صومام ",
    "commune": "Bab Ezzouar",
    "commune_ar": "باب الزوار",
    "lat": "36.726041",
    "lon": "3.190173"
  },
  {
    "nom": "Soumam",
    "nom_ar": "صومام ",
    "commune": "Bab Ezzouar",
    "commune_ar": "باب الزوار",
    "lat": "36.726079",
    "lon": "3.19035"
  },
  {
    "nom": "Université USTHB 1",
    "nom_ar": "جامعة هواري بومدين 1",
    "commune": "Bab Ezzouar",
    "commune_ar": "باب الزوار",
    "lat": "36.71907",
    "lon": "3.181491"
  },
  {
    "nom": "Université USTHB 2",
    "nom_ar": "جامعة هواري بومدين 2",
    "commune": "Bab Ezzouar",
    "commune_ar": "باب الزوار",
    "lat": "36.716153",
    "lon": "3.186514"
  },
  {
    "nom": "Basta Ali",
    "nom_ar": "باسطا علي ",
    "commune": "Beb El Oued",
    "commune_ar": "باب الوادى",
    "lat": "36.791872",
    "lon": "3.052606"
  },
  {
    "nom": "Bazetta",
    "nom_ar": "بازيطا ",
    "commune": "Beb El Oued",
    "commune_ar": "باب الوادى",
    "lat": "36.790036",
    "lon": "3.047581"
  },
  {
    "nom": "Bazetta",
    "nom_ar": "بازيطا ",
    "commune": "Beb El Oued",
    "commune_ar": "باب الوادى",
    "lat": "36.790114",
    "lon": "3.047583"
  },
  {
    "nom": "Boulevard Abderrahmane Taleb",
    "nom_ar": "نهج عبد الرحمان طالب ",
    "commune": "Beb El Oued",
    "commune_ar": "باب الوادى",
    "lat": "36.788793",
    "lon": "3.051047"
  },
  {
    "nom": "Boulevard Abderrahmane Mira",
    "nom_ar": "نهج عبد الرحمان ميرا",
    "commune": "Beb El Oued",
    "commune_ar": "باب الوادى",
    "lat": "36.79239",
    "lon": "3.056344"
  },
  {
    "nom": "Boulevard TALEB Abderahmane",
    "nom_ar": "نهج عبد الرحمان طالب ",
    "commune": "Beb El Oued",
    "commune_ar": "باب الوادى",
    "lat": "36.790786",
    "lon": "3.057704"
  },
  {
    "nom": "Boulevard TALEB Abderahmane",
    "nom_ar": "نهج عبد الرحمان طالب ",
    "commune": "Beb El Oued",
    "commune_ar": "باب الوادى",
    "lat": "36.790866",
    "lon": "3.057629"
  },
  {
    "nom": "Hopital Maillot",
    "nom_ar": "مستشفى مايو",
    "commune": "Beb El Oued",
    "commune_ar": "باب الوادى",
    "lat": "36.793052",
    "lon": "3.049782"
  },
  {
    "nom": "Hopital Maillot",
    "nom_ar": "مستشفى مايو",
    "commune": "Beb El Oued",
    "commune_ar": "باب الوادى",
    "lat": "36.793159",
    "lon": "3.050075"
  },
  {
    "nom": "Lycée Okba",
    "nom_ar": "ثانوية عقبة ",
    "commune": "Beb El Oued",
    "commune_ar": "باب الوادى",
    "lat": "36.789399",
    "lon": "3.057946"
  },
  {
    "nom": "Lycée Okba",
    "nom_ar": "ثانوية عقبة ",
    "commune": "Beb El Oued",
    "commune_ar": "باب الوادى",
    "lat": "36.78956",
    "lon": "3.058651"
  },
  {
    "nom": "Oued Koriche (Station Telepherique)",
    "nom_ar": "واد قريش (المصعد الهوائي)",
    "commune": "Beb El Oued",
    "commune_ar": "باب الوادى",
    "lat": "36.787942",
    "lon": "3.045158"
  },
  {
    "nom": "Oued Koriche (Station Telepherique)",
    "nom_ar": "واد قريش (المصعد الهوائي)",
    "commune": "Beb El Oued",
    "commune_ar": "باب الوادى",
    "lat": "36.787912",
    "lon": "3.044689"
  },
  {
    "nom": "Oued Koriche(Station Telepherique)",
    "nom_ar": "واد قريش (المصعد الهوائي)",
    "commune": "Beb El Oued",
    "commune_ar": "باب الوادى",
    "lat": "36.787886",
    "lon": "3.044195"
  },
  {
    "nom": "Place El Kettani",
    "nom_ar": "ساحة الكيتاني ",
    "commune": "Beb El Oued",
    "commune_ar": "باب الوادى",
    "lat": "36.791694",
    "lon": "3.058311"
  },
  {
    "nom": "Place Ferhani",
    "nom_ar": "ساحة فرحاني ",
    "commune": "Beb El Oued",
    "commune_ar": "باب الوادى",
    "lat": "36.793493",
    "lon": "3.053524"
  },
  {
    "nom": "Place Ferhani",
    "nom_ar": "ساحة فرحاني ",
    "commune": "Beb El Oued",
    "commune_ar": "باب الوادى",
    "lat": "36.794223",
    "lon": "3.053061"
  },
  {
    "nom": "Sidi Abderrahmane",
    "nom_ar": "سيدي عبد الرحمان   ",
    "commune": "Beb El Oued",
    "commune_ar": "باب الوادى",
    "lat": "36.788907",
    "lon": "3.057595"
  },
  {
    "nom": "Baba Hassen (AADL)",
    "nom_ar": "بابا حسن (عدل)",
    "commune": "Baba Hassen",
    "commune_ar": "بابا حسن",
    "lat": "36.688353",
    "lon": "2.965781"
  },
  {
    "nom": "Baba Hassen (AADL)",
    "nom_ar": "بابا حسن (عدل)",
    "commune": "Baba Hassen",
    "commune_ar": "بابا حسن",
    "lat": "36.688372",
    "lon": "2.965811"
  },
  {
    "nom": "Baba Hassen  Place Ennasr",
    "nom_ar": "ساحة النصر ",
    "commune": "Baba Hassen",
    "commune_ar": "بابا حسن",
    "lat": "36.695831",
    "lon": "2.97433"
  },
  {
    "nom": "Baba Hassen Place Ennasr",
    "nom_ar": "ساحة النصر ",
    "commune": "Baba Hassen",
    "commune_ar": "بابا حسن",
    "lat": "36.696109",
    "lon": "2.973749"
  },
  {
    "nom": "CEM Baba Hassen",
    "nom_ar": "متوسطة بابا حسن ",
    "commune": "Baba Hassen",
    "commune_ar": "بابا حسن",
    "lat": "36.696996",
    "lon": "2.969727"
  },
  {
    "nom": "CEM Baba Hassen",
    "nom_ar": "متوسطة بابا حسن",
    "commune": "Baba Hassen",
    "commune_ar": "بابا حسن",
    "lat": "36.697257",
    "lon": "2.969378"
  },
  {
    "nom": "Haouch Khoudja",
    "nom_ar": "حوش خوجة ",
    "commune": "Baba Hassen",
    "commune_ar": "بابا حسن",
    "lat": "36.696982",
    "lon": "2.985892"
  },
  {
    "nom": "Haouch Khoudja",
    "nom_ar": "حوش خوجة ",
    "commune": "Baba Hassen",
    "commune_ar": "بابا حسن",
    "lat": "36.697308",
    "lon": "2.98741"
  },
  {
    "nom": "Kartala",
    "nom_ar": "كرطالة ",
    "commune": "Baba Hassen",
    "commune_ar": "بابا حسن",
    "lat": "36.696755",
    "lon": "2.981773"
  },
  {
    "nom": "Djenane Mabrouk",
    "nom_ar": "جنان مبروك ",
    "commune": "Bachdjerrah",
    "commune_ar": "باش جراح",
    "lat": "36.723219",
    "lon": "3.125401"
  },
  {
    "nom": "Djenane Mabrouk",
    "nom_ar": "جنان مبروك ",
    "commune": "Bachdjerrah",
    "commune_ar": "باش جراح",
    "lat": "36.723254",
    "lon": "3.126388"
  },
  {
    "nom": "La Provale",
    "nom_ar": "لابروفال ",
    "commune": "Bachdjerrah",
    "commune_ar": "باش جراح",
    "lat": "36.719045",
    "lon": "3.09238"
  },
  {
    "nom": "La Provale",
    "nom_ar": "لابروفال ",
    "commune": "Bachdjerrah",
    "commune_ar": "باش جراح",
    "lat": "36.720524",
    "lon": "3.093023"
  },
  {
    "nom": "Lotissement Michel",
    "nom_ar": "لوتيسمون ميشال ",
    "commune": "Bachdjerrah",
    "commune_ar": "باش جراح",
    "lat": "36.720974",
    "lon": "3.102032"
  },
  {
    "nom": "Lotissement Michel",
    "nom_ar": "لوتيسمون ميشال ",
    "commune": "Bachdjerrah",
    "commune_ar": "باش جراح",
    "lat": "36.721035",
    "lon": "3.101793"
  },
  {
    "nom": "Baraki",
    "nom_ar": "براقي ",
    "commune": "Baraki",
    "commune_ar": "براقي",
    "lat": "36.670525",
    "lon": "3.086144"
  },
  {
    "nom": "Baraki",
    "nom_ar": "براقي ",
    "commune": "Baraki",
    "commune_ar": "براقي",
    "lat": "36.670633",
    "lon": "3.086374"
  },
  {
    "nom": "Baraki",
    "nom_ar": "براقي ",
    "commune": "Baraki",
    "commune_ar": "براقي",
    "lat": "36.672877",
    "lon": "3.086165"
  },
  {
    "nom": "Baraki",
    "nom_ar": "براقي ",
    "commune": "Baraki",
    "commune_ar": "براقي",
    "lat": "36.672899",
    "lon": "3.086157"
  },
  {
    "nom": "Baraki Rond Point",
    "nom_ar": "براقي محور دوران ",
    "commune": "Baraki",
    "commune_ar": "براقي",
    "lat": "36.675722",
    "lon": "3.090413"
  },
  {
    "nom": "Centre Medical Foyer",
    "nom_ar": "المركز الصحي فوايي",
    "commune": "Baraki",
    "commune_ar": "براقي",
    "lat": "36.677613",
    "lon": "3.090939"
  },
  {
    "nom": "Centre Medical Foyer",
    "nom_ar": "المركز الصحي فوايي",
    "commune": "Baraki",
    "commune_ar": "براقي",
    "lat": "36.677955",
    "lon": "3.090891"
  },
  {
    "nom": "Cité 2004 Logts",
    "nom_ar": "حي 2004 مسكن ",
    "commune": "Baraki",
    "commune_ar": "براقي",
    "lat": "36.658746",
    "lon": "3.098365"
  },
  {
    "nom": "Cité 2004 Logts",
    "nom_ar": "حي 2004 مسكن ",
    "commune": "Baraki",
    "commune_ar": "براقي",
    "lat": "36.658805",
    "lon": "3.098229"
  },
  {
    "nom": "Cité 500 Logts",
    "nom_ar": "حي 500 مسكن ",
    "commune": "Baraki",
    "commune_ar": "براقي",
    "lat": "36.652576",
    "lon": "3.103882"
  },
  {
    "nom": "Cité 500 Logts",
    "nom_ar": "حي 500 مسكن ",
    "commune": "Baraki",
    "commune_ar": "براقي",
    "lat": "36.652726",
    "lon": "3.103818"
  },
  {
    "nom": "Cité 700 Logts",
    "nom_ar": "حي 700 مسكن ",
    "commune": "Baraki",
    "commune_ar": "براقي",
    "lat": "36.645689",
    "lon": "3.086163"
  },
  {
    "nom": "Cité 700 Logts",
    "nom_ar": "حي 700 مسكن ",
    "commune": "Baraki",
    "commune_ar": "براقي",
    "lat": "36.646175",
    "lon": "3.086266"
  },
  {
    "nom": "Cité Boukaraa",
    "nom_ar": "حي بوقرعة ",
    "commune": "Baraki",
    "commune_ar": "براقي",
    "lat": "36.661843",
    "lon": "3.09537"
  },
  {
    "nom": "Cité Boukaraa",
    "nom_ar": "حي بوقرعة ",
    "commune": "Baraki",
    "commune_ar": "براقي",
    "lat": "36.661978",
    "lon": "3.095293"
  },
  {
    "nom": "Cité Laamirat 2",
    "nom_ar": "حي لعميرات 2",
    "commune": "Baraki",
    "commune_ar": "براقي",
    "lat": "36.644397",
    "lon": "3.109519"
  },
  {
    "nom": "Cité Laamirat 2",
    "nom_ar": "حي لعميرات 2",
    "commune": "Baraki",
    "commune_ar": "براقي",
    "lat": "36.644473",
    "lon": "3.109408"
  },
  {
    "nom": "Cité Mahmoudi",
    "nom_ar": "حي محمودي ",
    "commune": "Baraki",
    "commune_ar": "براقي",
    "lat": "36.650295",
    "lon": "3.085875"
  },
  {
    "nom": "Cité Slamani Mohamed",
    "nom_ar": "حي سلاماني محمد ",
    "commune": "Baraki",
    "commune_ar": "براقي",
    "lat": "36.648426",
    "lon": "3.086038"
  },
  {
    "nom": "Cité Mahmoudi",
    "nom_ar": "حي محمودي ",
    "commune": "Baraki",
    "commune_ar": "براقي",
    "lat": "36.650828",
    "lon": "3.085939"
  },
  {
    "nom": "Cité Slamani Mohamed",
    "nom_ar": "حي سلاماني محمد ",
    "commune": "Baraki",
    "commune_ar": "براقي",
    "lat": "36.648882",
    "lon": "3.086068"
  },
  {
    "nom": "Cité Youcef Boubaya (SOBIMAF)",
    "nom_ar": "حي يوسف بوبايا",
    "commune": "Baraki",
    "commune_ar": "براقي",
    "lat": "36.677292",
    "lon": "3.093105"
  },
  {
    "nom": "Cité Youcef Boubaye (SOBIMAF)",
    "nom_ar": "حي يوسف بوبايا",
    "commune": "Baraki",
    "commune_ar": "براقي",
    "lat": "36.676944",
    "lon": "3.092616"
  },
  {
    "nom": "Ecole Ahmed Ben Khoudja",
    "nom_ar": "مدرسة أحمد بن خوجة ",
    "commune": "Baraki",
    "commune_ar": "براقي",
    "lat": "36.667099",
    "lon": "3.08954"
  },
  {
    "nom": "Ecole Ahmed Ben Khoudja",
    "nom_ar": "مدرسة أحمد بن خوجة ",
    "commune": "Baraki",
    "commune_ar": "براقي",
    "lat": "36.667243",
    "lon": "3.089355"
  },
  {
    "nom": "Haouch Mihoub",
    "nom_ar": "حوش ميهوب ",
    "commune": "Baraki",
    "commune_ar": "براقي",
    "lat": "36.655528",
    "lon": "3.085695"
  },
  {
    "nom": "Haouch Mihoub",
    "nom_ar": "حوش ميهوب ",
    "commune": "Baraki",
    "commune_ar": "براقي",
    "lat": "36.653134",
    "lon": "3.085724"
  },
  {
    "nom": "Hotel El Forssen Beraki",
    "nom_ar": "فندق الفرسان براقي ",
    "commune": "Baraki",
    "commune_ar": "براقي",
    "lat": "36.674593",
    "lon": "3.0887"
  },
  {
    "nom": "Mahdi Boualem",
    "nom_ar": "مهدي بوعلام ",
    "commune": "Baraki",
    "commune_ar": "براقي",
    "lat": "36.68671",
    "lon": "3.106165"
  },
  {
    "nom": "Mosquee Benghazi",
    "nom_ar": "مسجد بن غازي ",
    "commune": "Baraki",
    "commune_ar": "براقي",
    "lat": "36.683709",
    "lon": "3.101414"
  },
  {
    "nom": "Mosquee Benghazi",
    "nom_ar": "مسجد بن غازي ",
    "commune": "Baraki",
    "commune_ar": "براقي",
    "lat": "36.683614",
    "lon": "3.101183"
  },
  {
    "nom": "Mahdi Boualem",
    "nom_ar": "مهدي بوعلام ",
    "commune": "Baraki",
    "commune_ar": "براقي",
    "lat": "36.686492",
    "lon": "3.10605"
  },
  {
    "nom": "Mosquee El Bachir El Ibrahimi",
    "nom_ar": "مسجد البشير الابراهيمي ",
    "commune": "Baraki",
    "commune_ar": "براقي",
    "lat": "36.664279",
    "lon": "3.092662"
  },
  {
    "nom": "Mosquee El Bachir El Ibrahimi",
    "nom_ar": "مسجد البشير الابراهيمي ",
    "commune": "Baraki",
    "commune_ar": "براقي",
    "lat": "36.664404",
    "lon": "3.092448"
  },
  {
    "nom": "Sidi Rezine",
    "nom_ar": "سيدي رزين ",
    "commune": "Baraki",
    "commune_ar": "براقي",
    "lat": "36.689805",
    "lon": "3.108962"
  },
  {
    "nom": "Nouveau Stade Baraki",
    "nom_ar": "ملعب براقي الجديد",
    "commune": "Baraki",
    "commune_ar": "براقي",
    "lat": "36.695115",
    "lon": "3.115255"
  },
  {
    "nom": "Nouveau Stade Baraki",
    "nom_ar": "ملعب براقي الجديد",
    "commune": "Baraki",
    "commune_ar": "براقي",
    "lat": "36.697448",
    "lon": "3.118387"
  },
  {
    "nom": "Alger Plage",
    "nom_ar": "شاطئ الجزائر ",
    "commune": "Bordj El Bahri",
    "commune_ar": "برج البحري",
    "lat": "36.79168",
    "lon": "3.238125"
  },
  {
    "nom": "Alger Plage",
    "nom_ar": "شاطئ الجزائر ",
    "commune": "Bordj El Bahri",
    "commune_ar": "برج البحري",
    "lat": "36.791708",
    "lon": "3.238202"
  },
  {
    "nom": "Bordj El Bahri",
    "nom_ar": "برج البحري ",
    "commune": "Bordj El Bahri",
    "commune_ar": "برج البحري",
    "lat": "36.789706",
    "lon": "3.249806"
  },
  {
    "nom": "Bordj El Bahri",
    "nom_ar": "برج البحري ",
    "commune": "Bordj El Bahri",
    "commune_ar": "برج البحري",
    "lat": "36.790099",
    "lon": "3.249913"
  },
  {
    "nom": "Brise Marine",
    "nom_ar": "نسيم البحر (لابريز)",
    "commune": "Bordj El Bahri",
    "commune_ar": "برج البحري",
    "lat": "36.783448",
    "lon": "3.249246"
  },
  {
    "nom": "Brise Marine",
    "nom_ar": "نسيم البحر (لابريز)",
    "commune": "Bordj El Bahri",
    "commune_ar": "برج البحري",
    "lat": "36.783553",
    "lon": "3.249185"
  },
  {
    "nom": "Café Chergui",
    "nom_ar": "قهوة شرقي ",
    "commune": "Bordj El Bahri",
    "commune_ar": "برج البحري",
    "lat": "36.778506",
    "lon": "3.249941"
  },
  {
    "nom": "Café Chergui",
    "nom_ar": "قهوة شرقي ",
    "commune": "Bordj El Bahri",
    "commune_ar": "برج البحري",
    "lat": "36.778642",
    "lon": "3.248097"
  },
  {
    "nom": "Carrefour El Marsa",
    "nom_ar": "مفترق الطرق المرسى ",
    "commune": "Bordj El Bahri",
    "commune_ar": "برج البحري",
    "lat": "36.803959",
    "lon": "3.252128"
  },
  {
    "nom": "Carrefour El Marsa",
    "nom_ar": "مفترق الطرق المرسى ",
    "commune": "Bordj El Bahri",
    "commune_ar": "برج البحري",
    "lat": "36.804037",
    "lon": "3.251631"
  },
  {
    "nom": "Carrefour El Marsa",
    "nom_ar": "مفترق الطرق المرسى ",
    "commune": "Bordj El Bahri",
    "commune_ar": "برج البحري",
    "lat": "36.804069",
    "lon": "3.250986"
  },
  {
    "nom": "CEM Alger Plage",
    "nom_ar": "متوسطة شاطئ الجزائر ",
    "commune": "Bordj El Bahri",
    "commune_ar": "برج البحري",
    "lat": "36.780774",
    "lon": "3.236913"
  },
  {
    "nom": "CEM Alger Plage",
    "nom_ar": "متوسطة شاطئ الجزائر ",
    "commune": "Bordj El Bahri",
    "commune_ar": "برج البحري",
    "lat": "36.780959",
    "lon": "3.236886"
  },
  {
    "nom": "Cité Azur et Mer",
    "nom_ar": "حي البحر الأزرق ",
    "commune": "Bordj El Bahri",
    "commune_ar": "برج البحري",
    "lat": "36.787211",
    "lon": "3.237614"
  },
  {
    "nom": "Cité Azur et Mer",
    "nom_ar": "حي البحر الأزرق ",
    "commune": "Bordj El Bahri",
    "commune_ar": "برج البحري",
    "lat": "36.787425",
    "lon": "3.237698"
  },
  {
    "nom": "Cosider",
    "nom_ar": "كوسيدار ",
    "commune": "Bordj El Bahri",
    "commune_ar": "برج البحري",
    "lat": "36.779325",
    "lon": "3.237427"
  },
  {
    "nom": "Cosider",
    "nom_ar": "كوسيدار ",
    "commune": "Bordj El Bahri",
    "commune_ar": "برج البحري",
    "lat": "36.779387",
    "lon": "3.237198"
  },
  {
    "nom": "Les Ondines",
    "nom_ar": "ليزوندين",
    "commune": "Bordj El Bahri",
    "commune_ar": "برج البحري",
    "lat": "36.798065",
    "lon": "3.238852"
  },
  {
    "nom": "Les Ondines",
    "nom_ar": "ليزوندين",
    "commune": "Bordj El Bahri",
    "commune_ar": "برج البحري",
    "lat": "36.798276",
    "lon": "3.238934"
  },
  {
    "nom": "Mosquee El Bachir El Ibrahimi",
    "nom_ar": "مسجد البشير الابراهيمي ",
    "commune": "Bordj El Bahri",
    "commune_ar": "برج البحري",
    "lat": "36.793087",
    "lon": "3.250178"
  },
  {
    "nom": "Mosquee El Bachir El Ibrahimi",
    "nom_ar": "مسجد البشير الابراهيمي ",
    "commune": "Bordj El Bahri",
    "commune_ar": "برج البحري",
    "lat": "36.793166",
    "lon": "3.250246"
  },
  {
    "nom": "Mosquee Sunna",
    "nom_ar": "مسجد السنة ",
    "commune": "Bordj El Bahri",
    "commune_ar": "برج البحري",
    "lat": "36.779158",
    "lon": "3.23976"
  },
  {
    "nom": "Mosquee Sunna",
    "nom_ar": "مسجد السنة ",
    "commune": "Bordj El Bahri",
    "commune_ar": "برج البحري",
    "lat": "36.779191",
    "lon": "3.240117"
  },
  {
    "nom": "Mosquee Khaled Ibn El Walid",
    "nom_ar": "مسجد خالد بن الوليد ",
    "commune": "Bordj El Bahri",
    "commune_ar": "برج البحري",
    "lat": "36.795433",
    "lon": "3.238572"
  },
  {
    "nom": "Pharmacie",
    "nom_ar": "صيدلية ",
    "commune": "Bordj El Bahri",
    "commune_ar": "برج البحري",
    "lat": "36.783808",
    "lon": "3.237219"
  },
  {
    "nom": "Mosquee Kheled Ibn El Walid",
    "nom_ar": "مسجد خالد بن الوليد ",
    "commune": "Bordj El Bahri",
    "commune_ar": "برج البحري",
    "lat": "36.795564",
    "lon": "3.238646"
  },
  {
    "nom": "Pharmacie",
    "nom_ar": "صيدلية ",
    "commune": "Bordj El Bahri",
    "commune_ar": "برج البحري",
    "lat": "36.784031",
    "lon": "3.237298"
  },
  {
    "nom": "Ben Zerga",
    "nom_ar": "بن زرقة ",
    "commune": "Bordj El Kiffan",
    "commune_ar": "برج الكيفان",
    "lat": "36.763322",
    "lon": "3.248218"
  },
  {
    "nom": "Ben Zerga",
    "nom_ar": "بن زرقة ",
    "commune": "Bordj El Kiffan",
    "commune_ar": "برج الكيفان",
    "lat": "36.763713",
    "lon": "3.248155"
  },
  {
    "nom": "Café Chergui",
    "nom_ar": "قهوة شرقي ",
    "commune": "Bordj El Kiffan",
    "commune_ar": "برج الكيفان",
    "lat": "36.777036",
    "lon": "3.250857"
  },
  {
    "nom": "Dergana",
    "nom_ar": "درقانة ",
    "commune": "Bordj El Kiffan",
    "commune_ar": "برج الكيفان",
    "lat": "36.772497",
    "lon": "3.260464"
  },
  {
    "nom": "Dergana",
    "nom_ar": "درقانة ",
    "commune": "Bordj El Kiffan",
    "commune_ar": "برج الكيفان",
    "lat": "36.772533",
    "lon": "3.259893"
  },
  {
    "nom": "Douar Ben Ziane",
    "nom_ar": "دوار بن زيان ",
    "commune": "Bordj El Kiffan",
    "commune_ar": "برج الكيفان",
    "lat": "36.757918",
    "lon": "3.249296"
  },
  {
    "nom": "Lycée Diplomatique Dergana",
    "nom_ar": "الثانوية الدبلوماسية درقانة ",
    "commune": "Bordj El Kiffan",
    "commune_ar": "برج الكيفان",
    "lat": "36.777578",
    "lon": "3.262985"
  },
  {
    "nom": "Lycée Diplomatique Dergana",
    "nom_ar": "الثانوية الدبلوماسية درقانة ",
    "commune": "Bordj El Kiffan",
    "commune_ar": "برج الكيفان",
    "lat": "36.777663",
    "lon": "3.262903"
  },
  {
    "nom": "Station de Service",
    "nom_ar": "محطة متعددة الخدمات  ",
    "commune": "Bordj El Kiffan",
    "commune_ar": "برج الكيفان",
    "lat": "36.767983",
    "lon": "3.250002"
  },
  {
    "nom": "Station de Service",
    "nom_ar": "محطة متعددة الخدمات  ",
    "commune": "Bordj El Kiffan",
    "commune_ar": "برج الكيفان",
    "lat": "36.768431",
    "lon": "3.250008"
  },
  {
    "nom": "Belcourt",
    "nom_ar": "بلكور ",
    "commune": "Belouizdad",
    "commune_ar": "بلوزداد",
    "lat": "36.755107",
    "lon": "3.066356"
  },
  {
    "nom": "Cité Universitaire Ahmed YOUSFI",
    "nom_ar": "حي جامعي أحمد يوسفي ",
    "commune": "Belouizdad",
    "commune_ar": "بلوزداد",
    "lat": "36.74526",
    "lon": "3.082372"
  },
  {
    "nom": "El Annasser",
    "nom_ar": "العناصر ",
    "commune": "Belouizdad",
    "commune_ar": "بلوزداد",
    "lat": "36.743978",
    "lon": "3.078623"
  },
  {
    "nom": "El Hamma",
    "nom_ar": "الحامة ",
    "commune": "Belouizdad",
    "commune_ar": "بلوزداد",
    "lat": "36.74855",
    "lon": "3.069152"
  },
  {
    "nom": "Hamoud Boualem",
    "nom_ar": "حمود بوعلام ",
    "commune": "Belouizdad",
    "commune_ar": "بلوزداد",
    "lat": "36.747469",
    "lon": "3.085541"
  },
  {
    "nom": "Jardin d Essai",
    "nom_ar": "حديقة التجارب ",
    "commune": "Belouizdad",
    "commune_ar": "بلوزداد",
    "lat": "36.746385",
    "lon": "3.073127"
  },
  {
    "nom": "Jardin d Essai",
    "nom_ar": "حديقة التجارب ",
    "commune": "Belouizdad",
    "commune_ar": "بلوزداد",
    "lat": "36.750957",
    "lon": "3.075906"
  },
  {
    "nom": "Les Ateliers",
    "nom_ar": "الورشات",
    "commune": "Belouizdad",
    "commune_ar": "بلوزداد",
    "lat": "36.752105",
    "lon": "3.070514"
  },
  {
    "nom": "Musset",
    "nom_ar": "ميسي ",
    "commune": "Belouizdad",
    "commune_ar": "بلوزداد",
    "lat": "36.755124",
    "lon": "3.059896"
  },
  {
    "nom": "Place du 11 Decembre 1960",
    "nom_ar": "ساحة 11 ديسمبر 1960",
    "commune": "Belouizdad",
    "commune_ar": "بلوزداد",
    "lat": "36.752749",
    "lon": "3.062106"
  },